$GPGGA,035102.400,4735.7143,N,12219.6437,W,1,9,1.35,0.0,M,-17.3,M,,*62

$GPGLL,4735.7143,N,12219.6437,W,035102.400,A,A*41

$GPGSA,A,3,17,27,28,09,15,04,26,12,08,,,,2.35,1.35,1.92*04

$GPGSV,3,1,12,17,73,072,40,27,61,291,42,28,45,082,35,09,43,306,22*79

$GPGSV,3,2,12,48,34,194,38,15,25,255,40,04,21,160,35,01,18,042,*7A

$GPGSV,3,3,12,26,14,210,35,12,14,280,36,08,09,142,30,11,02,035,*76

$GPRMC,035102.400,A,4735.7143,N,12219.6437,W,0.00,24.94,300412,,,A*49

$GPVTG,24.94,T,,M,0.00,N,0.00,K,A*06

$GPGGA,035102.600,4735.7143,N,12219.6437,W,1,9,1.35,0.0,M,-17.3,M,,*60

$GPGLL,4735.7143,N,12219.6437,W,035102.600,A,A*43

$GPGSA,A,3,17,27,28,09,15,04,26,12,08,,,,2.35,1.35,1.92*04

$GPGSV,3,1,12,17,73,072,40,27,61,291,42,28,45,082,35,09,43,306,22*79

$GPGSV,3,2,12,48,34,194,38,15,25,255,40,04,21,160,35,01,18,042,*7A

$GPGSV,3,3,12,26,14,210,35,12,14,280,36,08,09,142,30,11,02,035,*76

$GPRMC,035102.600,A,4735.7143,N,12219.6437,W,0.00,24.94,300412,,,A*4B

$GPVTG,24.94,T,,M,0.00,N,0.00,K,A*06

$GPGGA,035102.800,4735.7143,N,12219.6437,W,1,9,1.35,0.0,M,-17.3,M,,*6E

$GPGLL,4735.7143,N,12219.6437,W,035102.800,A,A*4D

$GPGSA,A,3,17,27,28,09,15,04,26,12,08,,,,2.35,1.35,1.92*04

$GPGSV,3,1,12,17,73,072,40,27,61,291,42,28,45,082,35,09,43,306,22*79

$GPGSV,3,2,12,48,34,194,38,15,25,255,40,04,21,160,35,01,18,042,*7A

$GPGSV,3,3,12,26,14,210,35,12,14,280,36,08,09,142,30,11,02,035,*76

$GPRMC,035102.800,A,4735.7143,N,12219.6437,W,0.01,24.94,300412,,,A*44

$GPVTG,24.94,T,,M,0.01,N,0.02,K,A*05

$GPGGA,035103.000,4735.7143,N,12219.6437,W,1,9,1.35,0.0,M,-17.3,M,,*67

$GPGLL,4735.7143,N,12219.6437,W,035103.000,A,A*44

$GPGSA,A,3,17,27,28,09,15,04,26,12,08,,,,2.35,1.35,1.92*04

$GPGSV,3,1,12,17,73,072,40,27,61,291,42,28,45,082,35,09,43,306,22*79

$GPGSV,3,2,12,48,34,194,38,15,25,255,40,04,21,160,35,01,18,042,*7A

$GPGSV,3,3,12,26,14,210,35,12,14,280,36,08,09,142,29,11,02,035,*7E

$GPRMC,035103.000,A,4735.7143,N,12219.6437,W,0.02,24.94,300412,,,A*4E

$GPVTG,24.94,T,,M,0.02,N,0.03,K,A*07

$GPGGA,035103.200,4735.7143,N,12219.6437,W,1,9,1.35,0.0,M,-17.3,M,,*65

$GPGLL,4735.7143,N,12219.6437,W,035103.200,A,A*46

$GPGSA,A,3,17,27,28,09,15,04,26,12,08,,,,2.35,1.35,1.92*04

$GPGSV,3,1,12,17,73,072,40,27,61,291,42,28,45,082,35,09,43,306,22*79

$GPGSV,3,2,12,48,34,194,38,15,25,255,40,04,21,160,35,01,18,042,*7A

$GPGSV,3,3,12,26,14,210,35,12,14,280,36,08,09,142,29,11,02,035,*7E

$GPRMC,035103.200,A,4735.7143,N,12219.6437,W,0.00,24.94,300412,,,A*4E

$GPVTG,24.94,T,,M,0.00,N,0.01,K,A*07

$GPGGA,035103.400,4735.7143,N,12219.6437,W,1,9,1.35,0.0,M,-17.3,M,,*63

$GPGLL,4735.7143,N,12219.6437,W,035103.400,A,A*40

$GPGSA,A,3,17,27,28,09,15,04,26,12,08,,,,2.35,1.35,1.92*04

$GPGSV,3,1,12,17,73,072,40,27,61,291,42,28,45,082,36,09,43,306,22*7A

$GPGSV,3,2,12,48,34,194,38,15,25,255,40,04,21,160,34,01,18,042,*7B

$GPGSV,3,3,12,26,14,210,35,12,14,280,36,08,09,142,29,11,02,035,*7E

$GPRMC,035103.400,A,4735.7143,N,12219.6437,W,0.01,24.94,300412,,,A*49

$GPVTG,24.94,T,,M,0.01,N,0.01,K,A*06

$GPGGA,035103.600,4735.7143,N,12219.6437,W,1,9,1.35,0.0,M,-17.3,M,,*61

$GPGLL,4735.7143,N,12219.6437,W,035103.600,A,A*42

$GPGSA,A,3,17,27,28,09,15,04,26,12,08,,,,2.35,1.35,1.92*04

$GPGSV,3,1,12,17,73,072,40,27,61,291,42,28,45,082,36,09,43,306,22*7A

$GPGSV,3,2,12,48,34,194,38,15,25,255,40,04,21,160,34,01,18,042,*7B

$GPGSV,3,3,12,26,14,210,35,12,14,280,36,08,09,142,29,11,02,035,*7E

$GPRMC,035103.600,A,4735.7143,N,12219.6437,W,0.01,24.94,300412,,,A*4B

$GPVTG,24.94,T,,M,0.01,N,0.01,K,A*06

$GPGGA,035103.800,4735.7143,N,12219.6437,W,1,9,1.35,0.0,M,-17.3,M,,*6F

$GPGLL,4735.7143,N,12219.6437,W,035103.800,A,A*4C

$GPGSA,A,3,17,27,28,09,15,04,26,12,08,,,,2.35,1.35,1.92*04

$GPGSV,3,1,12,17,73,072,40,27,61,291,42,28,45,082,36,09,43,306,22*7A

$GPGSV,3,2,12,48,34,194,38,15,25,255,40,04,21,160,34,01,18,042,*7B

$GPGSV,3,3,12,26,14,210,35,12,14,280,36,08,09,142,29,11,02,035,*7E

$GPRMC,035103.800,A,4735.7143,N,12219.6437,W,0.00,24.94,300412,,,A*44

$GPVTG,24.94,T,,M,0.00,N,0.01,K,A*07

$GPGGA,035104.000,4735.7143,N,12219.6437,W,1,9,1.35,0.0,M,-17.3,M,,*60

$GPGLL,4735.7143,N,12219.6437,W,035104.000,A,A*43

$GPGSA,A,3,17,27,28,09,15,04,26,12,08,,,,2.35,1.35,1.92*04

$GPGSV,3,1,12,17,73,072,40,27,61,291,42,28,45,082,36,09,43,306,22*7A

$GPGSV,3,2,12,48,34,194,37,15,25,255,40,04,21,160,34,01,18,042,*74

$GPGSV,3,3,12,26,14,210,35,12,14,280,36,08,09,142,28,11,02,035,*7F

$GPRMC,035104.000,A,4735.7143,N,12219.6437,W,0.01,24.94,300412,,,A*4A

$GPVTG,24.94,T,,M,0.01,N,0.01,K,A*06

$GPGGA,035104.200,4735.7143,N,12219.6437,W,1,9,1.35,0.0,M,-17.3,M,,*62

$GPGLL,4735.7143,N,12219.6437,W,035104.200,A,A*41

$GPGSA,A,3,17,27,28,09,15,04,26,12,08,,,,2.35,1.35,1.92*04

$GPGSV,3,1,12,17,73,072,40,27,61,291,42,28,45,082,36,09,43,306,22*7A

$GPGSV,3,2,12,48,34,194,36,15,25,255,40,04,21,160,34,01,18,042,*75

$GPGSV,3,3,12,26,14,210,35,12,14,280,36,08,09,142,28,11,02,035,*7F

$GPRMC,035104.200,A,4735.7143,N,12219.6437,W,0.01,24.94,300412,,,A*48

$GPVTG,24.94,T,,M,0.01,N,0.01,K,A*06

$GPGGA,035104.400,4735.7143,N,12219.6437,W,1,9,1.35,0.0,M,-17.3,M,,*64

$GPGLL,4735.7143,N,12219.6437,W,035104.400,A,A*47

$GPGSA,A,3,17,27,28,09,15,04,26,12,08,,,,2.35,1.35,1.92*04

$GPGSV,3,1,12,17,73,072,40,27,61,291,42,28,45,082,36,09,43,306,22*7A

$GPGSV,3,2,12,48,34,194,36,15,25,255,40,04,21,160,33,01,18,042,*72

$GPGSV,3,3,12,26,14,210,35,12,14,280,36,08,09,142,28,11,02,035,*7F

$GPRMC,035104.400,A,4735.7143,N,12219.6437,W,0.00,24.94,300412,,,A*4F

$GPVTG,24.94,T,,M,0.00,N,0.01,K,A*07

$GPGGA,035104.600,4735.7143,N,12219.6437,W,1,9,1.35,0.0,M,-17.3,M,,*66

$GPGLL,4735.7143,N,12219.6437,W,035104.600,A,A*45

$GPGSA,A,3,17,27,28,09,15,04,26,12,08,,,,2.35,1.35,1.92*04

$GPGSV,3,1,12,17,73,072,40,27,61,291,42,28,45,082,35,09,43,306,22*79

$GPGSV,3,2,12,48,34,194,36,15,25,255,40,04,21,160,32,01,18,042,*73

$GPGSV,3,3,12,26,14,210,35,12,14,280,36,08,09,142,27,11,02,035,*70

$GPRMC,035104.600,A,4735.7143,N,12219.6437,W,0.00,24.94,300412,,,A*4D

$GPVTG,24.94,T,,M,0.00,N,0.01,K,A*07

$GPGGA,035104.800,4735.7143,N,12219.6437,W,1,9,1.35,0.0,M,-17.3,M,,*68

$GPGLL,4735.7143,N,12219.6437,W,035104.800,A,A*4B

$GPGSA,A,3,17,27,28,09,15,04,26,12,08,,,,2.35,1.35,1.92*04

$GPGSV,3,1,12,17,73,072,40,27,61,291,42,28,45,082,35,09,43,306,22*79

$GPGSV,3,2,12,48,34,194,37,15,25,255,40,04,21,160,32,01,18,042,*72

$GPGSV,3,3,12,26,14,210,34,12,14,280,36,08,09,142,27,11,02,035,*71

$GPRMC,035104.800,A,4735.7143,N,12219.6437,W,0.01,24.94,300412,,,A*42

$GPVTG,24.94,T,,M,0.01,N,0.01,K,A*06

$GPGGA,035105.000,4735.7143,N,12219.6437,W,1,9,1.35,0.0,M,-17.3,M,,*61

$GPGLL,4735.7143,N,12219.6437,W,035105.000,A,A*42

$GPGSA,A,3,17,27,28,09,15,04,26,12,08,,,,2.35,1.35,1.92*04

$GPGSV,3,1,12,17,73,072,40,27,61,291,42,28,45,082,35,09,43,306,22*79

$GPGSV,3,2,12,48,34,194,37,15,25,255,40,04,21,160,32,01,18,042,*72

$GPGSV,3,3,12,26,14,210,34,12,14,280,36,08,09,142,27,11,02,035,*71

$GPRMC,035105.000,A,4735.7143,N,12219.6437,W,0.00,24.94,300412,,,A*4A

$GPVTG,24.94,T,,M,0.00,N,0.01,K,A*07

$GPGGA,035105.200,4735.7143,N,12219.6437,W,1,9,1.35,0.0,M,-17.3,M,,*63

$GPGLL,4735.7143,N,12219.6437,W,035105.200,A,A*40

$GPGSA,A,3,17,27,28,09,15,04,26,12,08,,,,2.35,1.35,1.92*04

$GPGSV,3,1,12,17,73,072,40,27,61,291,42,28,45,082,35,09,43,306,22*79

$GPGSV,3,2,12,48,34,194,37,15,25,255,40,04,21,160,32,01,18,042,*72

$GPGSV,3,3,12,26,14,210,34,12,14,280,36,08,09,142,27,11,02,035,*71

$GPRMC,035105.200,A,4735.7143,N,12219.6437,W,0.00,24.94,300412,,,A*48

$GPVTG,24.94,T,,M,0.00,N,0.00,K,A*06

$GPGGA,035105.400,4735.7143,N,12219.6437,W,1,9,1.35,0.0,M,-17.3,M,,*65

$GPGLL,4735.7143,N,12219.6437,W,035105.400,A,A*46

$GPGSA,A,3,17,27,28,09,15,04,26,12,08,,,,2.35,1.35,1.92*04

$GPGSV,3,1,12,17,73,072,40,27,61,291,42,28,45,082,35,09,43,306,22*79

$GPGSV,3,2,12,48,34,194,37,15,25,255,40,04,21,160,32,01,18,042,*72

$GPGSV,3,3,12,26,14,210,34,12,14,280,36,08,09,142,27,11,02,035,*71

$GPRMC,035105.400,A,4735.7143,N,12219.6437,W,0.01,24.94,300412,,,A*4F

$GPVTG,24.94,T,,M,0.01,N,0.01,K,A*06

$GPGGA,035105.600,4735.7143,N,12219.6437,W,1,9,1.35,0.0,M,-17.3,M,,*67

$GPGLL,4735.7143,N,12219.6437,W,035105.600,A,A*44

$GPGSA,A,3,17,27,28,09,15,04,26,12,08,,,,2.35,1.35,1.92*04

$GPGSV,3,1,12,17,73,072,40,27,61,291,42,28,45,082,35,09,43,306,22*79

$GPGSV,3,2,12,48,34,194,38,15,25,255,40,04,21,160,32,01,18,042,*7D

$GPGSV,3,3,12,26,14,210,34,12,14,280,36,08,09,142,26,11,02,035,*70

$GPRMC,035105.600,A,4735.7143,N,12219.6437,W,0.00,24.94,300412,,,A*4C

$GPVTG,24.94,T,,M,0.00,N,0.00,K,A*06

$GPGGA,035105.800,4735.7143,N,12219.6437,W,1,9,1.35,0.0,M,-17.3,M,,*69

$GPGLL,4735.7143,N,12219.6437,W,035105.800,A,A*4A

$GPGSA,A,3,17,27,28,09,15,04,26,12,08,,,,2.35,1.35,1.92*04

$GPGSV,3,1,12,17,73,072,40,27,61,291,42,28,45,082,35,09,43,306,22*79

$GPGSV,3,2,12,48,34,194,38,15,25,255,40,04,21,160,33,01,18,042,*7C

$GPGSV,3,3,12,26,14,210,34,12,14,280,36,08,09,142,25,11,02,035,*73

$GPRMC,035105.800,A,4735.7143,N,12219.6437,W,0.00,24.94,300412,,,A*42

$GPVTG,24.94,T,,M,0.00,N,0.01,K,A*07

$GPGGA,035106.000,4735.7143,N,12219.6437,W,1,9,1.35,0.0,M,-17.3,M,,*62

$GPGLL,4735.7143,N,12219.6437,W,035106.000,A,A*41

$GPGSA,A,3,17,27,28,09,15,04,26,12,08,,,,2.35,1.35,1.92*04

$GPGSV,3,1,12,17,73,072,40,27,61,291,42,28,45,082,35,09,43,306,22*79

$GPGSV,3,2,12,48,34,194,38,15,25,255,40,04,21,160,33,01,18,042,*7C

$GPGSV,3,3,12,26,14,210,34,12,14,280,36,08,09,142,25,11,02,035,*73

$GPRMC,035106.000,A,4735.7143,N,12219.6437,W,0.00,24.94,300412,,,A*49

$GPVTG,24.94,T,,M,0.00,N,0.00,K,A*06

$GPGGA,035106.200,4735.7143,N,12219.6437,W,1,9,1.35,0.0,M,-17.3,M,,*60

$GPGLL,4735.7143,N,12219.6437,W,035106.200,A,A*43

$GPGSA,A,3,17,27,28,09,15,04,26,12,08,,,,2.35,1.35,1.92*04

$GPGSV,3,1,12,17,73,072,40,27,61,291,42,28,45,082,35,09,43,306,22*79

$GPGSV,3,2,12,48,34,194,38,15,25,255,40,04,21,160,33,01,18,042,*7C

$GPGSV,3,3,12,26,14,210,34,12,14,280,36,08,09,142,25,11,02,035,*73

$GPRMC,035106.200,A,4735.7143,N,12219.6437,W,0.01,24.94,300412,,,A*4A

$GPVTG,24.94,T,,M,0.01,N,0.02,K,A*05

$GPGGA,035106.400,4735.7143,N,12219.6437,W,1,9,1.35,0.0,M,-17.3,M,,*66

$GPGLL,4735.7143,N,12219.6437,W,035106.400,A,A*45

$GPGSA,A,3,17,27,28,09,15,04,26,12,08,,,,2.35,1.35,1.92*04

$GPGSV,3,1,12,17,73,072,40,27,61,291,42,28,45,082,35,09,43,306,22*79

$GPGSV,3,2,12,48,34,194,38,15,25,255,40,04,21,160,33,01,18,042,*7C

$GPGSV,3,3,12,26,14,210,34,12,14,280,36,08,09,142,25,11,02,035,*73

$GPRMC,035106.400,A,4735.7143,N,12219.6437,W,0.01,24.94,300412,,,A*4C

$GPVTG,24.94,T,,M,0.01,N,0.02,K,A*05

$GPGGA,035106.600,4735.7143,N,12219.6437,W,1,9,1.35,0.0,M,-17.3,M,,*64

$GPGLL,4735.7143,N,12219.6437,W,035106.600,A,A*47

$GPGSA,A,3,17,27,28,09,15,04,26,12,08,,,,2.35,1.35,1.92*04

$GPGSV,3,1,12,17,73,072,40,27,61,291,42,28,45,082,35,09,43,306,21*7A

$GPGSV,3,2,12,48,34,194,38,15,25,255,40,04,21,160,33,01,18,042,*7C

$GPGSV,3,3,12,26,14,210,34,12,14,280,36,08,09,142,26,11,01,035,*73

$GPRMC,035106.600,A,4735.7143,N,12219.6437,W,0.01,24.94,300412,,,A*4E

$GPVTG,24.94,T,,M,0.01,N,0.01,K,A*06

$GPGGA,035106.800,4735.7143,N,12219.6437,W,1,9,1.35,0.0,M,-17.3,M,,*6A

$GPGLL,4735.7143,N,12219.6437,W,035106.800,A,A*49

$GPGSA,A,3,17,27,28,09,15,04,26,12,08,,,,2.35,1.35,1.92*04

$GPGSV,3,1,12,17,73,072,40,27,61,291,42,28,45,082,35,09,43,306,21*7A

$GPGSV,3,2,12,48,34,194,38,15,25,255,40,04,21,160,33,01,18,042,*7C

$GPGSV,3,3,12,26,14,210,34,12,14,280,36,08,09,142,27,11,01,035,*72

$GPRMC,035106.800,A,4735.7143,N,12219.6437,W,0.01,24.94,300412,,,A*40

$GPVTG,24.94,T,,M,0.01,N,0.02,K,A*05

$GPGGA,035107.000,4735.7143,N,12219.6437,W,1,9,1.35,0.0,M,-17.3,M,,*63

$GPGLL,4735.7143,N,12219.6437,W,035107.000,A,A*40

$GPGSA,A,3,17,27,28,09,15,04,26,12,08,,,,2.35,1.35,1.92*04

$GPGSV,3,1,12,17,73,072,40,27,61,291,42,28,45,082,35,09,43,306,21*7A

$GPGSV,3,2,12,48,34,194,38,15,25,255,40,04,21,160,33,01,18,042,*7C

$GPGSV,3,3,12,26,14,210,34,12,14,280,36,08,09,142,27,11,01,035,*72

$GPRMC,035107.000,A,4735.7143,N,12219.6437,W,0.01,24.94,300412,,,A*49

$GPVTG,24.94,T,,M,0.01,N,0.02,K,A*05

$GPGGA,035107.200,4735.7143,N,12219.6437,W,1,9,1.35,0.0,M,-17.3,M,,*61

$GPGLL,4735.7143,N,12219.6437,W,035107.200,A,A*42

$GPGSA,A,3,17,27,28,09,15,04,26,12,08,,,,2.35,1.35,1.92*04

$GPGSV,3,1,12,17,73,072,40,27,61,291,42,28,45,082,35,09,43,306,21*7A

$GPGSV,3,2,12,48,34,194,38,15,25,255,40,04,21,160,33,01,18,042,*7C

$GPGSV,3,3,12,26,14,210,33,12,14,280,36,08,09,142,28,11,01,035,*7A

$GPRMC,035107.200,A,4735.7143,N,12219.6437,W,0.01,24.94,300412,,,A*4B

$GPVTG,24.94,T,,M,0.01,N,0.01,K,A*06

$GPGGA,035107.400,4735.7143,N,12219.6437,W,1,9,1.35,0.0,M,-17.3,M,,*67

$GPGLL,4735.7143,N,12219.6437,W,035107.400,A,A*44

$GPGSA,A,3,17,27,28,09,15,04,26,12,08,,,,2.35,1.35,1.92*04

$GPGSV,3,1,12,17,73,072,40,27,61,291,42,28,45,082,35,09,43,306,21*7A

$GPGSV,3,2,12,48,34,194,38,15,25,255,40,04,21,160,33,01,18,042,*7C

$GPGSV,3,3,12,26,14,210,33,12,14,280,37,08,09,142,28,11,01,035,*7B

$GPRMC,035107.400,A,4735.7143,N,12219.6437,W,0.01,24.94,300412,,,A*4D

$GPVTG,24.94,T,,M,0.01,N,0.02,K,A*05

$GPGGA,035107.600,4735.7143,N,12219.6437,W,1,9,1.35,0.0,M,-17.3,M,,*65

$GPGLL,4735.7143,N,12219.6437,W,035107.600,A,A*46

$GPGSA,A,3,17,27,28,09,15,04,26,12,08,,,,2.35,1.35,1.92*04

$GPGSV,3,1,12,17,73,072,40,27,61,291,42,28,45,082,35,09,43,306,20*7B

$GPGSV,3,2,12,48,34,194,38,15,25,255,40,04,21,160,33,01,18,042,*7C

$GPGSV,3,3,12,26,14,210,33,12,14,280,37,08,09,142,27,11,01,035,*74

$GPRMC,035107.600,A,4735.7143,N,12219.6437,W,0.01,24.94,300412,,,A*4F

$GPVTG,24.94,T,,M,0.01,N,0.01,K,A*06

$GPGGA,035107.800,4735.7143,N,12219.6437,W,1,9,1.35,0.0,M,-17.3,M,,*6B

$GPGLL,4735.7143,N,12219.6437,W,035107.800,A,A*48

$GPGSA,A,3,17,27,28,09,15,04,26,12,08,,,,2.35,1.35,1.92*04

$GPGSV,3,1,12,17,73,072,40,27,61,291,42,28,45,082,35,09,43,306,20*7B

$GPGSV,3,2,12,48,34,194,38,15,25,255,40,04,21,160,33,01,18,042,*7C

$GPGSV,3,3,12,26,14,210,33,12,14,280,37,08,09,142,27,11,01,035,*74

$GPRMC,035107.800,A,4735.7143,N,12219.6437,W,0.00,24.94,300412,,,A*40

$GPVTG,24.94,T,,M,0.00,N,0.01,K,A*07

$GPGGA,035108.000,4735.7143,N,12219.6436,W,1,9,1.35,0.0,M,-17.3,M,,*6D

$GPGLL,4735.7143,N,12219.6436,W,035108.000,A,A*4E

$GPGSA,A,3,17,27,28,09,15,04,26,12,08,,,,2.35,1.35,1.92*04

$GPGSV,3,1,12,17,73,072,40,27,61,291,42,28,45,082,35,09,43,306,20*7B

$GPGSV,3,2,12,48,34,194,38,15,25,255,40,04,21,160,33,01,18,042,*7C

$GPGSV,3,3,12,26,14,210,33,12,14,280,37,08,09,142,27,11,01,035,*74

$GPRMC,035108.000,A,4735.7143,N,12219.6436,W,0.00,24.94,300412,,,A*46

$GPVTG,24.94,T,,M,0.00,N,0.01,K,A*07

$GPGGA,035108.200,4735.7143,N,12219.6436,W,1,9,1.35,0.0,M,-17.3,M,,*6F

$GPGLL,4735.7143,N,12219.6436,W,035108.200,A,A*4C

$GPGSA,A,3,17,27,28,09,15,04,26,12,08,,,,2.35,1.35,1.92*04

$GPGSV,3,1,12,17,73,072,40,27,61,291,42,28,45,082,34,09,43,306,21*7B

$GPGSV,3,2,12,48,34,194,38,15,25,255,40,04,21,160,33,01,18,042,*7C

$GPGSV,3,3,12,26,14,210,33,12,14,280,37,08,09,142,26,11,01,035,*75

$GPRMC,035108.200,A,4735.7143,N,12219.6436,W,0.01,24.94,300412,,,A*45

$GPVTG,24.94,T,,M,0.01,N,0.02,K,A*05

$GPGGA,035108.400,4735.7143,N,12219.6436,W,1,9,1.35,0.0,M,-17.3,M,,*69

$GPGLL,4735.7143,N,12219.6436,W,035108.400,A,A*4A

$GPGSA,A,3,17,27,28,09,15,04,26,12,08,,,,2.35,1.35,1.92*04

$GPGSV,3,1,12,17,73,072,40,27,61,291,42,28,45,082,34,09,43,306,21*7B

$GPGSV,3,2,12,48,34,194,38,15,25,255,40,04,21,160,33,01,18,042,*7C

$GPGSV,3,3,12,26,14,210,33,12,14,280,37,08,09,142,26,11,01,035,*75

$GPRMC,035108.400,A,4735.7143,N,12219.6436,W,0.01,24.94,300412,,,A*43

$GPVTG,24.94,T,,M,0.01,N,0.01,K,A*06

$GPGGA,035108.600,4735.7143,N,12219.6436,W,1,9,1.35,0.0,M,-17.3,M,,*6B

$GPGLL,4735.7143,N,12219.6436,W,035108.600,A,A*48

$GPGSA,A,3,17,27,28,09,15,04,26,12,08,,,,2.35,1.35,1.92*04

$GPGSV,3,1,12,17,73,072,40,27,61,291,42,28,45,082,34,09,43,306,21*7B

$GPGSV,3,2,12,48,34,194,38,15,25,255,40,04,21,160,33,01,18,042,*7C

$GPGSV,3,3,12,26,14,210,33,12,14,280,37,08,09,142,25,11,01,035,*76

$GPRMC,035108.600,A,4735.7143,N,12219.6436,W,0.01,24.94,300412,,,A*41

$GPVTG,24.94,T,,M,0.01,N,0.01,K,A*06

$GPGGA,035108.800,4735.7143,N,12219.6436,W,1,9,1.35,0.0,M,-17.3,M,,*65

$GPGLL,4735.7143,N,12219.6436,W,035108.800,A,A*46

$GPGSA,A,3,17,27,28,09,15,04,26,12,08,,,,2.35,1.35,1.92*04

$GPGSV,3,1,12,17,73,072,40,27,61,291,42,28,45,082,34,09,43,306,21*7B

$GPGSV,3,2,12,48,34,194,38,15,25,255,40,04,21,160,33,01,18,042,*7C

$GPGSV,3,3,12,26,14,210,33,12,14,280,37,08,09,142,25,11,01,035,*76

$GPRMC,035108.800,A,4735.7143,N,12219.6436,W,0.00,24.94,300412,,,A*4E

$GPVTG,24.94,T,,M,0.00,N,0.00,K,A*06

$GPGGA,035109.000,4735.7143,N,12219.6436,W,1,9,1.35,0.0,M,-17.3,M,,*6C

$GPGLL,4735.7143,N,12219.6436,W,035109.000,A,A*4F

$GPGSA,A,3,17,27,28,09,15,04,26,12,08,,,,2.35,1.35,1.92*04

$GPGSV,3,1,12,17,73,072,40,27,61,291,42,28,45,082,34,09,43,306,21*7B

$GPGSV,3,2,12,48,34,194,38,15,25,255,40,04,21,160,33,01,18,042,*7C

$GPGSV,3,3,12,26,14,210,34,12,14,280,37,08,09,142,24,11,01,035,*70

$GPRMC,035109.000,A,4735.7143,N,12219.6436,W,0.00,24.94,300412,,,A*47

$GPVTG,24.94,T,,M,0.00,N,0.01,K,A*07

$GPGGA,035109.200,4735.7143,N,12219.6436,W,1,9,1.35,0.0,M,-17.3,M,,*6E

$GPGLL,4735.7143,N,12219.6436,W,035109.200,A,A*4D

$GPGSA,A,3,17,27,28,09,15,04,26,12,08,,,,2.35,1.35,1.92*04

$GPGSV,3,1,12,17,73,072,40,27,61,291,42,28,45,082,34,09,43,306,21*7B

$GPGSV,3,2,12,48,34,194,38,15,25,255,40,04,21,160,33,01,18,042,*7C

$GPGSV,3,3,12,26,14,210,34,12,14,280,37,08,09,142,24,11,01,035,*70

$GPRMC,035109.200,A,4735.7143,N,12219.6436,W,0.01,24.94,300412,,,A*44

$GPVTG,24.94,T,,M,0.01,N,0.01,K,A*06

$GPGGA,035109.400,4735.7143,N,12219.6436,W,1,9,1.35,0.0,M,-17.3,M,,*68

$GPGLL,4735.7143,N,12219.6436,W,035109.400,A,A*4B

$GPGSA,A,3,17,27,28,09,15,04,26,12,08,,,,2.35,1.35,1.92*04

$GPGSV,3,1,12,17,73,072,40,27,61,291,42,28,45,082,34,09,43,306,21*7B

$GPGSV,3,2,12,48,34,194,38,15,25,255,40,04,21,160,33,01,18,042,*7C

$GPGSV,3,3,12,26,14,210,34,12,14,280,37,08,09,142,24,11,01,035,*70

$GPRMC,035109.400,A,4735.7143,N,12219.6436,W,0.02,24.94,300412,,,A*41

$GPVTG,24.94,T,,M,0.02,N,0.03,K,A*07

$GPGGA,035109.600,4735.7143,N,12219.6436,W,1,8,1.46,0.0,M,-17.3,M,,*6F

$GPGLL,4735.7143,N,12219.6436,W,035109.600,A,A*49

$GPGSA,A,3,17,27,28,09,15,04,26,12,,,,,2.71,1.46,2.28*0A

$GPGSV,3,1,12,17,73,072,40,27,61,291,42,28,45,082,34,09,43,306,21*7B

$GPGSV,3,2,12,48,34,194,38,15,25,255,40,04,21,160,33,01,18,042,*7C

$GPGSV,3,3,12,26,14,210,34,12,14,280,37,08,09,142,23,11,01,035,*77

$GPRMC,035109.600,A,4735.7143,N,12219.6436,W,0.00,24.94,300412,,,A*41

$GPVTG,24.94,T,,M,0.00,N,0.00,K,A*06

$GPGGA,035109.800,4735.7143,N,12219.6436,W,1,8,1.46,0.0,M,-17.3,M,,*61

$GPGLL,4735.7143,N,12219.6436,W,035109.800,A,A*47

$GPGSA,A,3,17,27,28,09,15,04,26,12,,,,,2.71,1.46,2.28*0A

$GPGSV,3,1,12,17,73,072,40,27,61,290,42,28,45,082,34,09,43,306,21*7A

$GPGSV,3,2,12,48,34,194,38,15,25,255,40,04,21,160,33,01,18,042,*7C

$GPGSV,3,3,12,26,14,210,34,12,14,280,37,08,09,142,23,11,01,035,*77

$GPRMC,035109.800,A,4735.7143,N,12219.6436,W,0.00,24.94,300412,,,A*4F

$GPVTG,24.94,T,,M,0.00,N,0.00,K,A*06

$GPGGA,035110.000,4735.7143,N,12219.6436,W,1,9,1.35,0.0,M,-17.3,M,,*64

$GPGLL,4735.7143,N,12219.6436,W,035110.000,A,A*47

$GPGSA,A,3,17,27,28,09,15,04,26,12,08,,,,2.35,1.35,1.92*04

$GPGSV,3,1,12,17,73,072,40,27,61,290,42,28,45,083,34,09,43,306,21*7B

$GPGSV,3,2,12,48,34,194,38,15,25,255,40,04,21,160,33,01,18,042,*7C

$GPGSV,3,3,12,26,14,210,34,12,14,280,37,08,09,142,23,11,01,035,*77

$GPRMC,035110.000,A,4735.7143,N,12219.6436,W,0.01,24.94,300412,,,A*4E

$GPVTG,24.94,T,,M,0.01,N,0.02,K,A*05

$GPGGA,035110.200,4735.7143,N,12219.6436,W,1,9,1.35,0.0,M,-17.3,M,,*66

$GPGLL,4735.7143,N,12219.6436,W,035110.200,A,A*45

$GPGSA,A,3,17,27,28,09,15,04,26,12,08,,,,2.35,1.35,1.92*04

$GPGSV,3,1,12,17,73,072,40,27,61,290,42,28,45,083,34,09,43,306,21*7B

$GPGSV,3,2,12,48,34,194,37,15,25,255,40,04,21,160,33,01,18,042,*73

$GPGSV,3,3,12,26,14,210,34,12,14,280,37,08,09,142,23,11,01,035,*77

$GPRMC,035110.200,A,4735.7143,N,12219.6436,W,0.01,24.94,300412,,,A*4C

$GPVTG,24.94,T,,M,0.01,N,0.02,K,A*05

$GPGGA,035110.400,4735.7143,N,12219.6436,W,1,9,1.35,0.0,M,-17.3,M,,*60

$GPGLL,4735.7143,N,12219.6436,W,035110.400,A,A*43

$GPGSA,A,3,17,27,28,09,15,04,26,12,08,,,,2.35,1.35,1.92*04

$GPGSV,3,1,12,17,73,072,40,27,61,290,42,28,45,083,34,09,43,306,21*7B

$GPGSV,3,2,12,48,34,194,37,15,25,255,40,04,21,160,33,01,18,042,*73

$GPGSV,3,3,12,26,14,210,34,12,14,280,37,08,09,142,23,11,01,035,*77

$GPRMC,035110.400,A,4735.7143,N,12219.6436,W,0.00,24.94,300412,,,A*4B

$GPVTG,24.94,T,,M,0.00,N,0.01,K,A*07

$GPGGA,035110.600,4735.7143,N,12219.6436,W,1,9,1.35,0.0,M,-17.3,M,,*62

$GPGLL,4735.7143,N,12219.6436,W,035110.600,A,A*41

$GPGSA,A,3,17,27,28,09,15,04,26,12,08,,,,2.35,1.35,1.92*04

$GPGSV,3,1,12,17,73,072,40,27,61,290,42,28,45,083,34,09,43,306,21*7B

$GPGSV,3,2,12,48,34,194,36,15,25,255,40,04,21,160,33,01,18,042,*72

$GPGSV,3,3,12,26,14,210,34,12,14,280,37,08,09,142,23,11,01,035,*77

$GPRMC,035110.600,A,4735.7143,N,12219.6436,W,0.00,24.94,300412,,,A*49

$GPVTG,24.94,T,,M,0.00,N,0.00,K,A*06

$GPGGA,035110.800,4735.7143,N,12219.6436,W,1,9,1.35,0.0,M,-17.3,M,,*6C

$GPGLL,4735.7143,N,12219.6436,W,035110.800,A,A*4F

$GPGSA,A,3,17,27,28,09,15,04,26,12,08,,,,2.35,1.35,1.92*04

$GPGSV,3,1,12,17,73,072,40,27,61,290,42,28,45,083,34,09,43,306,21*7B

$GPGSV,3,2,12,48,34,194,36,15,25,255,40,04,21,160,33,01,18,042,*72

$GPGSV,3,3,12,26,14,210,34,12,14,280,37,08,09,142,23,11,01,035,*77

$GPRMC,035110.800,A,4735.7143,N,12219.6436,W,0.01,24.94,300412,,,A*46

$GPVTG,24.94,T,,M,0.01,N,0.02,K,A*05

$GPGGA,035111.000,4735.7143,N,12219.6436,W,1,9,1.35,0.0,M,-17.3,M,,*65

$GPGLL,4735.7143,N,12219.6436,W,035111.000,A,A*46

$GPGSA,A,3,17,27,28,09,15,04,26,12,08,,,,2.35,1.35,1.92*04

$GPGSV,3,1,12,17,73,072,40,27,61,290,42,28,45,083,34,09,43,306,21*7B

$GPGSV,3,2,12,48,34,194,36,15,25,255,40,04,21,160,33,01,18,042,*72

$GPGSV,3,3,12,26,14,210,34,12,14,280,37,08,09,142,23,11,01,035,*77

$GPRMC,035111.000,A,4735.7143,N,12219.6436,W,0.01,24.94,300412,,,A*4F

$GPVTG,24.94,T,,M,0.01,N,0.01,K,A*06

$GPGGA,035111.200,4735.7143,N,12219.6436,W,1,9,1.35,0.0,M,-17.3,M,,*67

$GPGLL,4735.7143,N,12219.6436,W,035111.200,A,A*44

$GPGSA,A,3,17,27,28,09,15,04,26,12,08,,,,2.35,1.35,1.92*04

$GPGSV,3,1,12,17,73,072,40,27,61,290,42,28,45,083,33,09,43,306,21*7C

$GPGSV,3,2,12,48,34,194,36,15,25,255,40,04,21,160,33,01,18,042,*72

$GPGSV,3,3,12,26,14,210,34,12,14,280,37,08,09,142,23,11,01,035,*77

$GPRMC,035111.200,A,4735.7143,N,12219.6436,W,0.01,24.94,300412,,,A*4D

$GPVTG,24.94,T,,M,0.01,N,0.02,K,A*05

$GPGGA,035111.400,4735.7143,N,12219.6436,W,1,8,1.46,0.0,M,-17.3,M,,*64

$GPGLL,4735.7143,N,12219.6436,W,035111.400,A,A*42

$GPGSA,A,3,17,27,28,09,15,04,26,12,,,,,2.71,1.46,2.28*0A

$GPGSV,3,1,12,17,73,072,40,27,61,290,42,28,45,083,33,09,43,306,21*7C

$GPGSV,3,2,12,48,34,194,36,15,25,255,40,04,21,160,33,01,18,042,*72

$GPGSV,3,3,12,26,14,210,34,12,14,280,37,08,09,142,22,11,01,035,*76

$GPRMC,035111.400,A,4735.7143,N,12219.6436,W,0.01,24.94,300412,,,A*4B

$GPVTG,24.94,T,,M,0.01,N,0.02,K,A*05

$GPGGA,035111.600,4735.7143,N,12219.6436,W,1,8,1.46,0.0,M,-17.3,M,,*66

$GPGLL,4735.7143,N,12219.6436,W,035111.600,A,A*40

$GPGSA,A,3,17,27,28,09,15,04,26,12,,,,,2.71,1.46,2.28*0A

$GPGSV,3,1,12,17,73,072,40,27,61,290,42,28,45,083,32,09,43,306,21*7D

$GPGSV,3,2,12,48,34,194,36,15,25,255,40,04,21,160,33,01,18,042,*72

$GPGSV,3,3,12,26,14,210,34,12,14,280,37,08,09,142,22,11,01,035,*76

$GPRMC,035111.600,A,4735.7143,N,12219.6436,W,0.01,24.94,300412,,,A*49

$GPVTG,24.94,T,,M,0.01,N,0.01,K,A*06

$GPGGA,035111.800,4735.7143,N,12219.6436,W,1,8,1.46,0.0,M,-17.3,M,,*68

$GPGLL,4735.7143,N,12219.6436,W,035111.800,A,A*4E

$GPGSA,A,3,17,27,28,09,15,04,26,12,,,,,2.71,1.46,2.28*0A

$GPGSV,3,1,12,17,73,072,39,27,61,290,42,28,45,083,32,09,43,306,21*73

$GPGSV,3,2,12,48,34,194,36,15,25,255,40,04,21,160,34,01,18,042,*75

$GPGSV,3,3,12,26,14,210,34,12,14,280,37,08,09,142,22,11,01,035,*76

$GPRMC,035111.800,A,4735.7143,N,12219.6436,W,0.01,24.94,300412,,,A*47

$GPVTG,24.94,T,,M,0.01,N,0.01,K,A*06

$GPGGA,035112.000,4735.7143,N,12219.6436,W,1,8,1.46,0.0,M,-17.3,M,,*63

$GPGLL,4735.7143,N,12219.6436,W,035112.000,A,A*45

$GPGSA,A,3,17,27,28,09,15,04,26,12,,,,,2.71,1.46,2.28*0A

$GPGSV,3,1,12,17,73,072,39,27,61,290,42,28,45,083,32,09,43,306,21*73

$GPGSV,3,2,12,48,34,194,36,15,25,255,40,04,21,160,34,01,18,042,*75

$GPGSV,3,3,12,26,14,210,34,12,14,280,37,08,09,142,22,11,01,035,*76

$GPRMC,035112.000,A,4735.7143,N,12219.6436,W,0.01,24.94,300412,,,A*4C

$GPVTG,24.94,T,,M,0.01,N,0.01,K,A*06

$GPGGA,035112.200,4735.7143,N,12219.6436,W,1,8,1.46,0.0,M,-17.3,M,,*61

$GPGLL,4735.7143,N,12219.6436,W,035112.200,A,A*47

$GPGSA,A,3,17,27,28,09,15,04,26,12,,,,,2.71,1.46,2.28*0A

$GPGSV,3,1,12,17,73,072,39,27,61,290,42,28,45,083,32,09,43,306,21*73

$GPGSV,3,2,12,48,34,194,36,15,25,255,40,04,21,160,34,01,18,042,*75

$GPGSV,3,3,12,26,14,210,34,12,14,280,37,08,09,142,21,11,01,035,*75

$GPRMC,035112.200,A,4735.7143,N,12219.6436,W,0.00,24.94,300412,,,A*4F

$GPVTG,24.94,T,,M,0.00,N,0.01,K,A*07

$GPGGA,035112.400,4735.7143,N,12219.6436,W,1,8,1.46,0.0,M,-17.3,M,,*67

$GPGLL,4735.7143,N,12219.6436,W,035112.400,A,A*41

$GPGSA,A,3,17,27,28,09,15,04,26,12,,,,,2.71,1.46,2.28*0A

$GPGSV,3,1,12,17,73,072,39,27,61,290,42,28,45,083,32,09,43,306,21*73

$GPGSV,3,2,12,48,34,194,36,15,25,255,40,04,21,160,34,01,18,042,*75

$GPGSV,3,3,12,26,14,210,33,12,14,280,37,08,09,142,20,11,01,035,*73

$GPRMC,035112.400,A,4735.7143,N,12219.6436,W,0.01,24.94,300412,,,A*48

$GPVTG,24.94,T,,M,0.01,N,0.02,K,A*05

$GPGGA,035112.600,4735.7143,N,12219.6436,W,1,8,1.46,0.0,M,-17.3,M,,*65

$GPGLL,4735.7143,N,12219.6436,W,035112.600,A,A*43

$GPGSA,A,3,17,27,28,09,15,04,26,12,,,,,2.71,1.46,2.28*0A

$GPGSV,3,1,12,17,73,072,39,27,61,290,42,28,45,083,33,09,43,306,22*71

$GPGSV,3,2,12,48,34,194,37,15,25,255,40,04,21,160,34,01,18,042,*74

$GPGSV,3,3,12,26,14,210,33,12,14,280,37,08,09,142,20,11,01,035,*73

$GPRMC,035112.600,A,4735.7143,N,12219.6436,W,0.01,24.94,300412,,,A*4A

$GPVTG,24.94,T,,M,0.01,N,0.01,K,A*06

$GPGGA,035112.800,4735.7143,N,12219.6436,W,1,8,1.46,0.0,M,-17.3,M,,*6B

$GPGLL,4735.7143,N,12219.6436,W,035112.800,A,A*4D

$GPGSA,A,3,17,27,28,09,15,04,26,12,,,,,2.71,1.46,2.28*0A

$GPGSV,3,1,12,17,73,072,39,27,61,290,42,28,45,083,34,09,43,306,22*76

$GPGSV,3,2,12,48,34,194,38,15,25,255,40,04,21,160,34,01,18,042,*7B

$GPGSV,3,3,12,26,14,210,33,12,14,280,37,08,09,142,20,11,01,035,*73

$GPRMC,035112.800,A,4735.7143,N,12219.6436,W,0.01,24.94,300412,,,A*44

$GPVTG,24.94,T,,M,0.01,N,0.01,K,A*06

$GPGGA,035113.000,4735.7143,N,12219.6436,W,1,8,1.46,0.0,M,-17.3,M,,*62

$GPGLL,4735.7143,N,12219.6436,W,035113.000,A,A*44

$GPGSA,A,3,17,27,28,09,15,04,26,12,,,,,2.71,1.46,2.28*0A

$GPGSV,3,1,12,17,73,072,39,27,61,290,42,28,45,083,35,09,43,306,22*77

$GPGSV,3,2,12,48,34,194,38,15,25,255,40,04,21,160,34,01,18,042,*7B

$GPGSV,3,3,12,26,14,210,32,12,14,280,37,08,09,142,20,11,01,035,*72

$GPRMC,035113.000,A,4735.7143,N,12219.6436,W,0.00,24.94,300412,,,A*4C

$GPVTG,24.94,T,,M,0.00,N,0.01,K,A*07

$GPGGA,035113.200,4735.7143,N,12219.6436,W,1,8,1.46,0.0,M,-17.3,M,,*60

$GPGLL,4735.7143,N,12219.6436,W,035113.200,A,A*46

$GPGSA,A,3,17,27,28,09,15,04,26,12,,,,,2.71,1.46,2.28*0A

$GPGSV,3,1,12,17,73,072,39,27,61,290,42,28,45,083,36,09,43,306,22*74

$GPGSV,3,2,12,48,34,194,38,15,25,255,40,04,21,160,34,01,18,042,*7B

$GPGSV,3,3,12,26,14,210,32,12,14,280,37,08,09,142,20,11,01,035,*72

$GPRMC,035113.200,A,4735.7143,N,12219.6436,W,0.00,24.94,300412,,,A*4E

$GPVTG,24.94,T,,M,0.00,N,0.01,K,A*07

$GPGGA,035113.400,4735.7143,N,12219.6436,W,1,9,1.35,0.0,M,-17.3,M,,*63

$GPGLL,4735.7143,N,12219.6436,W,035113.400,A,A*40

$GPGSA,A,3,17,27,28,09,15,04,26,12,08,,,,2.35,1.35,1.92*04

$GPGSV,3,1,12,17,73,072,39,27,61,290,42,28,45,083,37,09,43,306,22*75

$GPGSV,3,2,12,48,34,194,38,15,25,255,40,04,21,160,34,01,18,042,*7B

$GPGSV,3,3,12,26,14,210,32,12,14,280,37,08,09,142,22,11,01,035,*70

$GPRMC,035113.400,A,4735.7143,N,12219.6436,W,0.01,24.94,300412,,,A*49

$GPVTG,24.94,T,,M,0.01,N,0.02,K,A*05

$GPGGA,035113.600,4735.7143,N,12219.6436,W,1,9,1.35,0.0,M,-17.3,M,,*61

$GPGLL,4735.7143,N,12219.6436,W,035113.600,A,A*42

$GPGSA,A,3,17,27,28,09,15,04,26,12,08,,,,2.35,1.35,1.92*04

$GPGSV,3,1,12,17,73,072,39,27,61,290,42,28,45,083,37,09,43,306,22*75

$GPGSV,3,2,12,48,34,194,38,15,25,255,40,04,21,160,34,01,18,042,*7B

$GPGSV,3,3,12,26,14,210,32,12,14,280,36,08,09,142,23,11,01,035,*70

$GPRMC,035113.600,A,4735.7143,N,12219.6436,W,0.01,24.94,300412,,,A*4B

$GPVTG,24.94,T,,M,0.01,N,0.01,K,A*06

$GPGGA,035113.800,4735.7143,N,12219.6436,W,1,9,1.35,0.0,M,-17.3,M,,*6F

$GPGLL,4735.7143,N,12219.6436,W,035113.800,A,A*4C

$GPGSA,A,3,17,27,28,09,15,04,26,12,08,,,,2.35,1.35,1.92*04

$GPGSV,3,1,12,17,73,072,39,27,61,290,42,28,45,083,37,09,43,306,22*75

$GPGSV,3,2,12,48,34,194,38,15,25,255,40,04,21,160,34,01,18,042,*7B

$GPGSV,3,3,12,26,14,210,32,12,14,280,36,08,09,142,24,11,01,035,*77

$GPRMC,035113.800,A,4735.7143,N,12219.6436,W,0.00,24.94,300412,,,A*44

$GPVTG,24.94,T,,M,0.00,N,0.01,K,A*07

$GPGGA,035114.000,4735.7143,N,12219.6436,W,1,9,1.35,0.0,M,-17.3,M,,*60

$GPGLL,4735.7143,N,12219.6436,W,035114.000,A,A*43

$GPGSA,A,3,17,27,28,09,15,04,26,12,08,,,,2.35,1.35,1.92*04

$GPGSV,3,1,12,17,73,072,39,27,61,290,42,28,45,083,37,09,43,306,21*76

$GPGSV,3,2,12,48,34,194,38,15,25,255,40,04,21,160,34,01,18,042,*7B

$GPGSV,3,3,12,26,14,210,32,12,14,280,36,08,09,142,25,11,01,035,*76

$GPRMC,035114.000,A,4735.7143,N,12219.6436,W,0.00,24.94,300412,,,A*4B

$GPVTG,24.94,T,,M,0.00,N,0.01,K,A*07

$GPGGA,035114.200,4735.7143,N,12219.6436,W,1,9,1.35,0.0,M,-17.3,M,,*62

$GPGLL,4735.7143,N,12219.6436,W,035114.200,A,A*41

$GPGSA,A,3,17,27,28,09,15,04,26,12,08,,,,2.35,1.35,1.92*04

$GPGSV,3,1,12,17,73,072,39,27,61,290,42,28,45,083,37,09,43,306,21*76

$GPGSV,3,2,12,48,34,194,38,15,25,255,40,04,21,160,34,01,18,042,*7B

$GPGSV,3,3,12,26,14,210,32,12,14,280,36,08,09,142,26,11,01,035,*75

$GPRMC,035114.200,A,4735.7143,N,12219.6436,W,0.00,24.94,300412,,,A*49

$GPVTG,24.94,T,,M,0.00,N,0.00,K,A*06

$GPGGA,035114.400,4735.7143,N,12219.6436,W,1,9,1.35,0.0,M,-17.3,M,,*64

$GPGLL,4735.7143,N,12219.6436,W,035114.400,A,A*47

$GPGSA,A,3,17,27,28,09,15,04,26,12,08,,,,2.35,1.35,1.92*04

$GPGSV,3,1,12,17,73,072,39,27,61,290,42,28,45,083,37,09,43,306,21*76

$GPGSV,3,2,12,48,34,194,38,15,25,255,40,04,21,160,34,01,18,042,*7B

$GPGSV,3,3,12,26,14,210,32,12,14,280,36,08,09,142,26,11,01,035,*75

$GPRMC,035114.400,A,4735.7143,N,12219.6436,W,0.01,24.94,300412,,,A*4E

$GPVTG,24.94,T,,M,0.01,N,0.02,K,A*05

$GPGGA,035114.600,4735.7143,N,12219.6436,W,1,9,1.35,0.0,M,-17.3,M,,*66

$GPGLL,4735.7143,N,12219.6436,W,035114.600,A,A*45

$GPGSA,A,3,17,27,28,09,15,04,26,12,08,,,,2.35,1.35,1.92*04

$GPGSV,3,1,12,17,73,072,39,27,61,290,42,28,45,083,37,09,43,306,21*76

$GPGSV,3,2,12,48,34,194,38,15,25,255,40,04,21,160,34,01,18,042,*7B

$GPGSV,3,3,12,26,14,210,32,12,14,280,36,08,09,142,26,11,01,035,*75

$GPRMC,035114.600,A,4735.7143,N,12219.6436,W,0.01,24.94,300412,,,A*4C

$GPVTG,24.94,T,,M,0.01,N,0.01,K,A*06

$GPGGA,035114.800,4735.7143,N,12219.6436,W,1,9,1.35,0.0,M,-17.3,M,,*68

$GPGLL,4735.7143,N,12219.6436,W,035114.800,A,A*4B

$GPGSA,A,3,17,27,28,09,15,04,26,12,08,,,,2.35,1.35,1.92*04

$GPGSV,3,1,12,17,73,072,39,27,61,290,42,28,45,083,37,09,43,306,21*76

$GPGSV,3,2,12,48,34,194,38,15,25,255,40,04,21,160,34,01,18,042,*7B

$GPGSV,3,3,12,26,14,210,33,12,14,280,36,08,09,142,26,11,01,035,*74

$GPRMC,035114.800,A,4735.7143,N,12219.6436,W,0.00,24.94,300412,,,A*43

$GPVTG,24.94,T,,M,0.00,N,0.01,K,A*07

$GPGGA,035115.000,4735.7143,N,12219.6436,W,1,9,1.35,0.0,M,-17.3,M,,*61

$GPGLL,4735.7143,N,12219.6436,W,035115.000,A,A*42

$GPGSA,A,3,17,27,28,09,15,04,26,12,08,,,,2.35,1.35,1.92*04

$GPGSV,3,1,12,17,73,072,39,27,61,290,42,28,45,083,37,09,43,306,21*76

$GPGSV,3,2,12,48,34,194,38,15,25,255,40,04,21,160,34,01,18,042,*7B

$GPGSV,3,3,12,26,14,210,33,12,14,280,36,08,09,142,26,11,01,035,*74

$GPRMC,035115.000,A,4735.7143,N,12219.6436,W,0.01,24.94,300412,,,A*4B

$GPVTG,24.94,T,,M,0.01,N,0.01,K,A*06

$GPGGA,035115.200,4735.7143,N,12219.6436,W,1,9,1.35,0.0,M,-17.3,M,,*63

$GPGLL,4735.7143,N,12219.6436,W,035115.200,A,A*40

$GPGSA,A,3,17,27,28,09,15,04,26,12,08,,,,2.35,1.35,1.92*04

$GPGSV,3,1,12,17,73,072,39,27,61,290,42,28,45,083,37,09,43,306,21*76

$GPGSV,3,2,12,48,34,194,38,15,25,255,40,04,21,160,34,01,18,042,*7B

$GPGSV,3,3,12,26,14,210,33,12,14,280,36,08,09,142,26,11,01,035,*74

$GPRMC,035115.200,A,4735.7143,N,12219.6436,W,0.01,24.94,300412,,,A*49

$GPVTG,24.94,T,,M,0.01,N,0.01,K,A*06

$GPGGA,035115.400,4735.7143,N,12219.6436,W,1,9,1.35,0.0,M,-17.3,M,,*65

$GPGLL,4735.7143,N,12219.6436,W,035115.400,A,A*46

$GPGSA,A,3,17,27,28,09,15,04,26,12,08,,,,2.35,1.35,1.92*04

$GPGSV,3,1,12,17,73,072,39,27,61,290,42,28,45,083,37,09,43,306,21*76

$GPGSV,3,2,12,48,34,194,38,15,25,255,40,04,21,160,33,01,18,042,*7C

$GPGSV,3,3,12,26,14,210,33,12,14,280,36,08,09,142,26,11,01,035,*74

$GPRMC,035115.400,A,4735.7143,N,12219.6436,W,0.01,24.94,300412,,,A*4F

$GPVTG,24.94,T,,M,0.01,N,0.02,K,A*05

$GPGGA,035115.600,4735.7143,N,12219.6436,W,1,9,1.35,0.0,M,-17.3,M,,*67

$GPGLL,4735.7143,N,12219.6436,W,035115.600,A,A*44

$GPGSA,A,3,17,27,28,09,15,04,26,12,08,,,,2.35,1.35,1.92*04

$GPGSV,3,1,12,17,73,072,39,27,61,290,42,28,45,083,37,09,43,306,21*76

$GPGSV,3,2,12,48,34,194,38,15,25,255,40,04,21,160,33,01,18,042,*7C

$GPGSV,3,3,12,26,14,210,33,12,14,280,36,08,09,142,26,11,01,035,*74

$GPRMC,035115.600,A,4735.7143,N,12219.6436,W,0.00,24.94,300412,,,A*4C

$GPVTG,24.94,T,,M,0.00,N,0.01,K,A*07

$GPGGA,035115.800,4735.7143,N,12219.6436,W,1,9,1.35,0.0,M,-17.3,M,,*69

$GPGLL,4735.7143,N,12219.6436,W,035115.800,A,A*4A

$GPGSA,A,3,17,27,28,09,15,04,26,12,08,,,,2.35,1.35,1.92*04

$GPGSV,3,1,12,17,73,072,39,27,61,290,42,28,45,083,37,09,43,306,20*77

$GPGSV,3,2,12,48,34,194,38,15,25,255,40,04,21,160,33,01,18,042,*7C

$GPGSV,3,3,12,26,14,210,33,12,14,280,35,08,09,142,26,11,01,035,*77

$GPRMC,035115.800,A,4735.7143,N,12219.6436,W,0.01,24.94,300412,,,A*43

$GPVTG,24.94,T,,M,0.01,N,0.01,K,A*06

$GPGGA,035116.000,4735.7143,N,12219.6436,W,1,9,1.35,0.0,M,-17.3,M,,*62

$GPGLL,4735.7143,N,12219.6436,W,035116.000,A,A*41

$GPGSA,A,3,17,27,28,09,15,04,26,12,08,,,,2.35,1.35,1.92*04

$GPGSV,3,1,12,17,73,072,39,27,61,290,42,28,45,083,37,09,43,306,20*77

$GPGSV,3,2,12,48,34,194,38,15,25,255,40,04,21,160,33,01,18,042,*7C

$GPGSV,3,3,12,26,14,210,33,12,14,280,35,08,09,142,26,11,01,035,*77

$GPRMC,035116.000,A,4735.7143,N,12219.6436,W,0.00,24.94,300412,,,A*49

$GPVTG,24.94,T,,M,0.00,N,0.01,K,A*07

$GPGGA,035116.200,4735.7143,N,12219.6436,W,1,8,1.42,0.0,M,-17.3,M,,*61

$GPGLL,4735.7143,N,12219.6436,W,035116.200,A,A*43

$GPGSA,A,3,17,27,28,15,04,26,12,08,,,,,2.40,1.42,1.93*0E

$GPGSV,3,1,12,17,73,072,39,27,61,290,42,28,45,083,37,09,43,306,20*77

$GPGSV,3,2,12,48,34,194,38,15,25,255,40,04,21,160,33,01,18,042,*7C

$GPGSV,3,3,12,26,14,210,33,12,14,280,35,08,09,142,26,11,01,035,*77

$GPRMC,035116.200,A,4735.7143,N,12219.6436,W,0.01,24.94,300412,,,A*4A

$GPVTG,24.94,T,,M,0.01,N,0.02,K,A*05

$GPGGA,035116.400,4735.7143,N,12219.6436,W,1,8,1.42,0.0,M,-17.3,M,,*67

$GPGLL,4735.7143,N,12219.6436,W,035116.400,A,A*45

$GPGSA,A,3,17,27,28,15,04,26,12,08,,,,,2.40,1.42,1.93*0E

$GPGSV,3,1,12,17,73,072,39,27,61,290,42,28,45,083,37,09,43,306,20*77

$GPGSV,3,2,12,48,34,194,38,15,25,255,40,04,21,160,33,01,18,042,*7C

$GPGSV,3,3,12,26,14,210,33,12,14,280,35,08,09,142,26,11,01,035,*77

$GPRMC,035116.400,A,4735.7143,N,12219.6436,W,0.01,24.94,300412,,,A*4C

$GPVTG,24.94,T,,M,0.01,N,0.02,K,A*05

$GPGGA,035116.600,4735.7143,N,12219.6436,W,1,9,1.35,0.0,M,-17.3,M,,*64

$GPGLL,4735.7143,N,12219.6436,W,035116.600,A,A*47

$GPGSA,A,3,17,27,28,09,15,04,26,12,08,,,,2.35,1.35,1.92*04

$GPGSV,3,1,12,17,73,072,39,27,61,290,42,28,45,083,37,09,43,306,20*77

$GPGSV,3,2,12,48,34,194,38,15,25,255,40,04,21,160,33,01,18,042,*7C

$GPGSV,3,3,12,26,14,210,33,12,14,280,35,08,09,142,26,11,01,035,*77

$GPRMC,035116.600,A,4735.7143,N,12219.6436,W,0.00,24.94,300412,,,A*4F

$GPVTG,24.94,T,,M,0.00,N,0.01,K,A*07

$GPGGA,035116.800,4735.7143,N,12219.6436,W,1,8,1.42,0.0,M,-17.3,M,,*6B

$GPGLL,4735.7143,N,12219.6436,W,035116.800,A,A*49

$GPGSA,A,3,17,27,28,15,04,26,12,08,,,,,2.40,1.42,1.93*0E

$GPGSV,3,1,12,17,73,072,39,27,61,290,42,28,45,083,37,09,43,306,20*77

$GPGSV,3,2,12,48,34,194,38,15,25,255,40,04,21,160,33,01,18,042,*7C

$GPGSV,3,3,12,26,14,210,33,12,14,280,35,08,09,142,26,11,01,035,*77

$GPRMC,035116.800,A,4735.7143,N,12219.6436,W,0.01,24.94,300412,,,A*40

$GPVTG,24.94,T,,M,0.01,N,0.01,K,A*06

$GPGGA,035117.000,4735.7144,N,12219.6436,W,1,9,1.35,0.0,M,-17.3,M,,*64

$GPGLL,4735.7144,N,12219.6436,W,035117.000,A,A*47

$GPGSA,A,3,17,27,28,09,15,04,26,12,08,,,,2.35,1.35,1.92*04

$GPGSV,3,1,12,17,73,072,39,27,61,290,42,28,45,083,37,09,43,306,20*77

$GPGSV,3,2,12,48,34,194,38,15,25,255,40,04,21,160,33,01,18,042,*7C

$GPGSV,3,3,12,26,14,210,33,12,14,280,35,08,09,142,26,11,01,035,*77

$GPRMC,035117.000,A,4735.7144,N,12219.6436,W,0.00,24.94,300412,,,A*4F

$GPVTG,24.94,T,,M,0.00,N,0.01,K,A*07

$GPGGA,035117.200,4735.7144,N,12219.6436,W,1,9,1.35,0.0,M,-17.3,M,,*66

$GPGLL,4735.7144,N,12219.6436,W,035117.200,A,A*45

$GPGSA,A,3,17,27,28,09,15,04,26,12,08,,,,2.35,1.35,1.92*04

$GPGSV,3,1,12,17,73,072,39,27,61,290,42,28,45,083,37,09,43,306,20*77

$GPGSV,3,2,12,48,34,194,38,15,25,255,40,04,21,160,33,01,18,042,*7C

$GPGSV,3,3,12,26,14,210,33,12,14,280,34,08,09,142,26,11,01,035,*76

$GPRMC,035117.200,A,4735.7144,N,12219.6436,W,0.00,24.94,300412,,,A*4D

$GPVTG,24.94,T,,M,0.00,N,0.01,K,A*07

$GPGGA,035117.400,4735.7144,N,12219.6436,W,1,9,1.35,0.0,M,-17.3,M,,*60

$GPGLL,4735.7144,N,12219.6436,W,035117.400,A,A*43

$GPGSA,A,3,17,27,28,09,15,04,26,12,08,,,,2.35,1.35,1.92*04

$GPGSV,3,1,12,17,73,072,39,27,61,290,42,28,45,083,37,09,43,306,20*77

$GPGSV,3,2,12,48,34,194,38,15,25,255,40,04,21,160,33,01,18,042,*7C

$GPGSV,3,3,12,26,14,210,33,12,14,280,34,08,09,142,26,11,01,035,*76

$GPRMC,035117.400,A,4735.7144,N,12219.6436,W,0.00,24.94,300412,,,A*4B

$GPVTG,24.94,T,,M,0.00,N,0.00,K,A*06

$GPGGA,035117.600,4735.7144,N,12219.6435,W,1,8,1.42,0.0,M,-17.3,M,,*60

$GPGLL,4735.7144,N,12219.6435,W,035117.600,A,A*42

$GPGSA,A,3,17,27,28,15,04,26,12,08,,,,,2.40,1.42,1.93*0E

$GPGSV,3,1,12,17,73,072,39,27,61,290,42,28,45,083,37,09,43,306,20*77

$GPGSV,3,2,12,48,34,194,38,15,25,255,40,04,21,160,33,01,18,042,*7C

$GPGSV,3,3,12,26,14,210,33,12,14,280,34,08,09,142,26,11,01,035,*76

$GPRMC,035117.600,A,4735.7144,N,12219.6435,W,0.00,24.94,300412,,,A*4A

$GPVTG,24.94,T,,M,0.00,N,0.00,K,A*06

$GPGGA,035117.800,4735.7144,N,12219.6435,W,1,9,1.35,0.0,M,-17.3,M,,*6F

$GPGLL,4735.7144,N,12219.6435,W,035117.800,A,A*4C

$GPGSA,A,3,17,27,28,09,15,04,26,12,08,,,,2.35,1.35,1.92*04

$GPGSV,3,1,12,17,73,072,39,27,61,290,42,28,45,083,37,09,43,306,20*77

$GPGSV,3,2,12,48,34,194,38,15,25,255,40,04,21,160,33,01,18,042,*7C

$GPGSV,3,3,12,26,14,210,33,12,14,280,34,08,09,142,26,11,01,035,*76

$GPRMC,035117.800,A,4735.7144,N,12219.6435,W,0.01,24.94,300412,,,A*45

$GPVTG,24.94,T,,M,0.01,N,0.03,K,A*04

$GPGGA,035118.000,4735.7144,N,12219.6435,W,1,9,1.35,0.0,M,-17.3,M,,*68

$GPGLL,4735.7144,N,12219.6435,W,035118.000,A,A*4B

$GPGSA,A,3,17,27,28,09,15,04,26,12,08,,,,2.35,1.35,1.92*04

$GPGSV,3,1,12,17,73,072,39,27,61,290,42,28,45,083,37,09,43,306,20*77

$GPGSV,3,2,12,48,34,194,38,15,25,255,40,04,21,160,33,01,18,042,*7C

$GPGSV,3,3,12,26,14,210,33,12,14,280,34,08,09,142,26,11,01,035,*76

$GPRMC,035118.000,A,4735.7144,N,12219.6435,W,0.00,24.94,300412,,,A*43

$GPVTG,24.94,T,,M,0.00,N,0.00,K,A*06

$GPGGA,035118.200,4735.7144,N,12219.6435,W,1,9,1.35,0.0,M,-17.3,M,,*6A

$GPGLL,4735.7144,N,12219.6435,W,035118.200,A,A*49

$GPGSA,A,3,17,27,28,09,15,04,26,12,08,,,,2.35,1.35,1.92*04

$GPGSV,3,1,12,17,73,072,39,27,61,290,42,28,45,083,37,09,43,306,20*77

$GPGSV,3,2,12,48,34,194,38,15,25,255,40,04,21,160,33,01,18,042,*7C

$GPGSV,3,3,12,26,14,210,33,12,14,280,34,08,09,142,26,11,01,035,*76

$GPRMC,035118.200,A,4735.7144,N,12219.6435,W,0.01,24.94,300412,,,A*40

$GPVTG,24.94,T,,M,0.01,N,0.01,K,A*06

$GPGGA,035118.400,4735.7144,N,12219.6435,W,1,9,1.35,0.0,M,-17.3,M,,*6C

$GPGLL,4735.7144,N,12219.6435,W,035118.400,A,A*4F

$GPGSA,A,3,17,27,28,09,15,04,26,12,08,,,,2.35,1.35,1.92*04

$GPGSV,3,1,12,17,73,072,39,27,61,290,42,28,45,083,37,09,43,306,20*77

$GPGSV,3,2,12,48,34,194,38,15,25,255,40,04,21,160,33,01,18,042,*7C

$GPGSV,3,3,12,26,14,210,33,12,14,280,34,08,09,142,26,11,01,035,*76

$GPRMC,035118.400,A,4735.7144,N,12219.6435,W,0.01,24.94,300412,,,A*46

$GPVTG,24.94,T,,M,0.01,N,0.01,K,A*06

$GPGGA,035118.600,4735.7144,N,12219.6435,W,1,9,1.35,0.0,M,-17.3,M,,*6E

$GPGLL,4735.7144,N,12219.6435,W,035118.600,A,A*4D

$GPGSA,A,3,17,27,28,09,15,04,26,12,08,,,,2.35,1.35,1.92*04

$GPGSV,3,1,12,17,73,072,39,27,61,290,42,28,45,083,37,09,43,306,20*77

$GPGSV,3,2,12,48,34,194,38,15,25,255,40,04,21,160,33,01,18,042,*7C

$GPGSV,3,3,12,26,14,210,33,12,14,280,34,08,09,142,26,11,01,035,*76

$GPRMC,035118.600,A,4735.7144,N,12219.6435,W,0.01,24.94,300412,,,A*44

$GPVTG,24.94,T,,M,0.01,N,0.01,K,A*06

$GPGGA,035118.800,4735.7144,N,12219.6435,W,1,9,1.35,0.0,M,-17.3,M,,*60

$GPGLL,4735.7144,N,12219.6435,W,035118.800,A,A*43

$GPGSA,A,3,17,27,28,09,15,04,26,12,08,,,,2.35,1.35,1.92*04

$GPGSV,3,1,12,17,73,072,39,27,61,290,42,28,45,083,37,09,43,306,20*77

$GPGSV,3,2,12,48,34,194,38,15,25,255,40,04,21,160,33,01,18,042,*7C

$GPGSV,3,3,12,26,14,210,33,12,14,280,34,08,09,142,25,11,01,035,*75

$GPRMC,035118.800,A,4735.7144,N,12219.6435,W,0.00,24.94,300412,,,A*4B

$GPVTG,24.94,T,,M,0.00,N,0.01,K,A*07

$GPGGA,035119.000,4735.7144,N,12219.6435,W,1,8,1.42,0.0,M,-17.3,M,,*68

$GPGLL,4735.7144,N,12219.6435,W,035119.000,A,A*4A

$GPGSA,A,3,17,27,28,15,04,26,12,08,,,,,2.40,1.42,1.93*0E

$GPGSV,3,1,12,17,73,072,39,27,61,290,42,28,45,083,37,09,43,306,20*77

$GPGSV,3,2,12,48,34,194,38,15,25,255,40,04,21,160,33,01,18,042,*7C

$GPGSV,3,3,12,26,14,210,33,12,14,280,34,08,09,142,25,11,01,035,*75

$GPRMC,035119.000,A,4735.7144,N,12219.6435,W,0.01,24.94,300412,,,A*43

$GPVTG,24.94,T,,M,0.01,N,0.01,K,A*06

$GPGGA,035119.200,4735.7144,N,12219.6435,W,1,9,1.35,0.0,M,-17.3,M,,*6B

$GPGLL,4735.7144,N,12219.6435,W,035119.200,A,A*48

$GPGSA,A,3,17,27,28,09,15,04,26,12,08,,,,2.35,1.35,1.92*04

$GPGSV,3,1,12,17,73,072,39,27,61,290,42,28,45,083,37,09,43,306,20*77

$GPGSV,3,2,12,48,34,194,38,15,25,255,40,04,21,160,33,01,18,042,*7C

$GPGSV,3,3,12,26,14,210,33,12,14,280,34,08,09,142,25,11,01,035,*75

$GPRMC,035119.200,A,4735.7144,N,12219.6435,W,0.00,24.94,300412,,,A*40

$GPVTG,24.94,T,,M,0.00,N,0.01,K,A*07

$GPGGA,035119.400,4735.7144,N,12219.6435,W,1,9,1.35,0.0,M,-17.3,M,,*6D

$GPGLL,4735.7144,N,12219.6435,W,035119.400,A,A*4E

$GPGSA,A,3,17,27,28,09,15,04,26,12,08,,,,2.35,1.35,1.92*04

$GPGSV,3,1,12,17,73,072,39,27,61,290,42,28,45,083,37,09,43,306,20*77

$GPGSV,3,2,12,48,34,194,38,15,25,255,40,04,21,160,33,01,18,042,*7C

$GPGSV,3,3,12,26,14,210,33,12,14,280,34,08,09,142,25,11,01,035,*75

$GPRMC,035119.400,A,4735.7144,N,12219.6435,W,0.01,24.94,300412,,,A*47

$GPVTG,24.94,T,,M,0.01,N,0.02,K,A*05

$GPGGA,035119.600,4735.7144,N,12219.6435,W,1,9,1.35,0.0,M,-17.3,M,,*6F

$GPGLL,4735.7144,N,12219.6435,W,035119.600,A,A*4C

$GPGSA,A,3,17,27,28,09,15,04,26,12,08,,,,2.35,1.35,1.92*04

$GPGSV,3,1,12,17,73,072,39,27,61,290,42,28,45,083,37,09,43,306,20*77

$GPGSV,3,2,12,48,34,194,38,15,25,255,40,04,21,160,33,01,18,042,*7C

$GPGSV,3,3,12,26,14,210,33,12,14,280,34,08,09,142,25,11,01,035,*75

$GPRMC,035119.600,A,4735.7144,N,12219.6435,W,0.01,24.94,300412,,,A*45

$GPVTG,24.94,T,,M,0.01,N,0.02,K,A*05

$GPGGA,035119.800,4735.7144,N,12219.6435,W,1,9,1.35,0.0,M,-17.3,M,,*61

$GPGLL,4735.7144,N,12219.6435,W,035119.800,A,A*42

$GPGSA,A,3,17,27,28,09,15,04,26,12,08,,,,2.35,1.35,1.92*04

$GPGSV,3,1,12,17,73,072,39,27,61,290,42,28,45,083,37,09,43,306,20*77

$GPGSV,3,2,12,48,34,194,38,15,25,255,40,04,21,160,33,01,18,042,*7C

$GPGSV,3,3,12,26,14,210,33,12,14,280,34,08,09,142,26,11,01,035,*76

$GPRMC,035119.800,A,4735.7144,N,12219.6435,W,0.01,24.94,300412,,,A*4B

$GPVTG,24.94,T,,M,0.01,N,0.02,K,A*05

$GPGGA,035120.000,4735.7144,N,12219.6435,W,1,9,1.35,0.0,M,-17.3,M,,*63

$GPGLL,4735.7144,N,12219.6435,W,035120.000,A,A*40

$GPGSA,A,3,17,27,28,09,15,04,26,12,08,,,,2.35,1.35,1.92*04

$GPGSV,3,1,12,17,73,072,39,27,61,290,42,28,45,083,37,09,43,306,20*77

$GPGSV,3,2,12,48,34,194,38,15,25,255,40,04,21,160,33,01,18,042,*7C

$GPGSV,3,3,12,26,14,210,33,12,14,280,34,08,09,142,26,11,01,035,*76

$GPRMC,035120.000,A,4735.7144,N,12219.6435,W,0.01,24.94,300412,,,A*49

$GPVTG,24.94,T,,M,0.01,N,0.01,K,A*06

$GPGGA,035120.200,4735.7144,N,12219.6435,W,1,9,1.35,0.0,M,-17.3,M,,*61

$GPGLL,4735.7144,N,12219.6435,W,035120.200,A,A*42

$GPGSA,A,3,17,27,28,09,15,04,26,12,08,,,,2.35,1.35,1.92*04

$GPGSV,3,1,12,17,73,072,39,27,61,290,42,28,45,083,37,09,43,306,20*77

$GPGSV,3,2,12,48,34,194,38,15,25,255,40,04,21,160,33,01,18,042,*7C

$GPGSV,3,3,12,26,14,210,33,12,14,280,34,08,09,142,26,11,01,035,*76

$GPRMC,035120.200,A,4735.7144,N,12219.6435,W,0.01,24.94,300412,,,A*4B

$GPVTG,24.94,T,,M,0.01,N,0.02,K,A*05

$GPGGA,035120.400,4735.7144,N,12219.6435,W,1,9,1.35,0.0,M,-17.3,M,,*67

$GPGLL,4735.7144,N,12219.6435,W,035120.400,A,A*44

$GPGSA,A,3,17,27,28,09,15,04,26,12,08,,,,2.35,1.35,1.92*04

$GPGSV,3,1,12,17,73,072,39,27,61,290,42,28,45,083,37,09,43,306,20*77

$GPGSV,3,2,12,48,34,194,38,15,25,255,40,04,21,160,33,01,18,042,*7C

$GPGSV,3,3,12,26,14,210,33,12,14,280,34,08,09,142,26,11,01,035,*76

$GPRMC,035120.400,A,4735.7144,N,12219.6435,W,0.01,24.94,300412,,,A*4D

$GPVTG,24.94,T,,M,0.01,N,0.02,K,A*05

$GPGGA,035120.600,4735.7144,N,12219.6435,W,1,9,1.35,0.0,M,-17.3,M,,*65

$GPGLL,4735.7144,N,12219.6435,W,035120.600,A,A*46

$GPGSA,A,3,17,27,28,09,15,04,26,12,08,,,,2.35,1.35,1.92*04

$GPGSV,3,1,12,17,72,072,39,27,61,290,42,28,45,083,37,09,43,306,20*76

$GPGSV,3,2,12,48,34,194,38,15,25,255,40,04,21,160,33,01,18,042,*7C

$GPGSV,3,3,12,26,14,210,33,12,14,280,34,08,09,142,26,11,01,035,*76

$GPRMC,035120.600,A,4735.7144,N,12219.6435,W,0.00,24.94,300412,,,A*4E

$GPVTG,24.94,T,,M,0.00,N,0.00,K,A*06

$GPGGA,035120.800,4735.7144,N,12219.6435,W,1,9,1.35,0.0,M,-17.3,M,,*6B

$GPGLL,4735.7144,N,12219.6435,W,035120.800,A,A*48

$GPGSA,A,3,17,27,28,09,15,04,26,12,08,,,,2.35,1.35,1.92*04

$GPGSV,3,1,12,17,72,072,39,27,61,290,42,28,45,083,37,09,43,306,20*76

$GPGSV,3,2,12,48,34,194,38,15,25,255,40,04,21,160,33,01,18,042,*7C

$GPGSV,3,3,12,26,14,210,33,12,14,280,34,08,09,142,26,11,01,035,*76

$GPRMC,035120.800,A,4735.7144,N,12219.6435,W,0.00,24.94,300412,,,A*40

$GPVTG,24.94,T,,M,0.00,N,0.01,K,A*07

$GPGGA,035121.000,4735.7144,N,12219.6435,W,1,9,1.35,0.0,M,-17.3,M,,*62

$GPGLL,4735.7144,N,12219.6435,W,035121.000,A,A*41

$GPGSA,A,3,17,27,28,09,15,04,26,12,08,,,,2.35,1.35,1.92*04

$GPGSV,3,1,12,17,72,072,39,27,61,290,42,28,45,083,37,09,43,306,20*76

$GPGSV,3,2,12,48,34,194,38,15,25,255,40,04,21,160,33,01,18,042,*7C

$GPGSV,3,3,12,26,14,210,33,12,14,280,34,08,09,142,26,11,01,035,*76

$GPRMC,035121.000,A,4735.7144,N,12219.6435,W,0.01,24.94,300412,,,A*48

$GPVTG,24.94,T,,M,0.01,N,0.01,K,A*06

$GPGGA,035121.200,4735.7144,N,12219.6435,W,1,9,1.35,0.0,M,-17.3,M,,*60

$GPGLL,4735.7144,N,12219.6435,W,035121.200,A,A*43

$GPGSA,A,3,17,27,28,09,15,04,26,12,08,,,,2.35,1.35,1.92*04

$GPGSV,3,1,12,17,72,072,39,27,61,290,42,28,45,083,37,09,43,306,20*76

$GPGSV,3,2,12,48,34,194,38,15,25,255,40,04,21,160,33,01,18,042,*7C

$GPGSV,3,3,12,26,14,210,33,12,14,280,34,08,09,142,26,11,01,035,*76

$GPRMC,035121.200,A,4735.7144,N,12219.6435,W,0.00,24.94,300412,,,A*4B

$GPVTG,24.94,T,,M,0.00,N,0.00,K,A*06

$GPGGA,035121.400,4735.7144,N,12219.6435,W,1,9,1.35,0.0,M,-17.3,M,,*66

$GPGLL,4735.7144,N,12219.6435,W,035121.400,A,A*45

$GPGSA,A,3,17,27,28,09,15,04,26,12,08,,,,2.35,1.35,1.92*04

$GPGSV,3,1,12,17,72,072,39,27,61,290,42,28,45,083,38,09,43,306,20*79

$GPGSV,3,2,12,48,34,194,38,15,25,255,40,04,21,160,33,01,18,042,*7C

$GPGSV,3,3,12,26,14,210,33,12,14,280,34,08,09,142,27,11,01,035,*77

$GPRMC,035121.400,A,4735.7144,N,12219.6435,W,0.01,24.94,300412,,,A*4C

$GPVTG,24.94,T,,M,0.01,N,0.03,K,A*04

$GPGGA,035121.600,4735.7144,N,12219.6435,W,1,9,1.35,0.0,M,-17.3,M,,*64

$GPGLL,4735.7144,N,12219.6435,W,035121.600,A,A*47

$GPGSA,A,3,17,27,28,09,15,04,26,12,08,,,,2.35,1.35,1.92*04

$GPGSV,3,1,12,17,72,072,39,27,61,290,42,28,45,083,38,09,43,306,20*79

$GPGSV,3,2,12,48,34,194,38,15,25,255,40,04,21,160,34,01,18,042,*7B

$GPGSV,3,3,12,26,14,210,33,12,14,280,35,08,09,142,27,11,01,035,*76

$GPRMC,035121.600,A,4735.7144,N,12219.6435,W,0.01,24.94,300412,,,A*4E

$GPVTG,24.94,T,,M,0.01,N,0.01,K,A*06

$GPGGA,035121.800,4735.7144,N,12219.6435,W,1,9,1.35,0.0,M,-17.3,M,,*6A

$GPGLL,4735.7144,N,12219.6435,W,035121.800,A,A*49

$GPGSA,A,3,17,27,28,09,15,04,26,12,08,,,,2.35,1.35,1.92*04

$GPGSV,3,1,12,17,72,072,39,27,61,290,42,28,45,083,38,09,43,306,20*79

$GPGSV,3,2,12,48,34,194,38,15,25,255,40,04,21,160,34,01,18,042,*7B

$GPGSV,3,3,12,26,14,210,33,12,14,280,35,08,09,142,27,11,01,035,*76

$GPRMC,035121.800,A,4735.7144,N,12219.6435,W,0.00,24.94,300412,,,A*41

$GPVTG,24.94,T,,M,0.00,N,0.00,K,A*06

$GPGGA,035122.000,4735.7144,N,12219.6435,W,1,9,1.35,0.0,M,-17.3,M,,*61

$GPGLL,4735.7144,N,12219.6435,W,035122.000,A,A*42

$GPGSA,A,3,17,27,28,09,15,04,26,12,08,,,,2.35,1.35,1.92*04

$GPGSV,3,1,12,17,72,072,39,27,61,290,42,28,45,083,38,09,43,306,20*79

$GPGSV,3,2,12,48,34,194,38,15,25,255,40,04,21,160,34,01,18,042,*7B

$GPGSV,3,3,12,26,14,210,33,12,14,280,35,08,09,142,27,11,01,035,*76

$GPRMC,035122.000,A,4735.7144,N,12219.6435,W,0.01,24.94,300412,,,A*4B

$GPVTG,24.94,T,,M,0.01,N,0.03,K,A*04

$GPGGA,035122.200,4735.7144,N,12219.6435,W,1,9,1.35,0.0,M,-17.3,M,,*63

$GPGLL,4735.7144,N,12219.6435,W,035122.200,A,A*40

$GPGSA,A,3,17,27,28,09,15,04,26,12,08,,,,2.35,1.35,1.92*04

$GPGSV,3,1,12,17,72,072,39,27,61,290,42,28,45,083,38,09,43,306,21*78

$GPGSV,3,2,12,48,34,194,38,15,25,255,40,04,21,160,34,01,18,042,*7B

$GPGSV,3,3,12,26,14,210,33,12,14,280,35,08,09,142,27,11,01,035,*76

$GPRMC,035122.200,A,4735.7144,N,12219.6435,W,0.01,24.94,300412,,,A*49

$GPVTG,24.94,T,,M,0.01,N,0.01,K,A*06

$GPGGA,035122.400,4735.7144,N,12219.6435,W,1,9,1.35,0.0,M,-17.3,M,,*65

$GPGLL,4735.7144,N,12219.6435,W,035122.400,A,A*46

$GPGSA,A,3,17,27,28,09,15,04,26,12,08,,,,2.35,1.35,1.92*04

$GPGSV,3,1,12,17,72,072,39,27,61,290,42,28,45,083,38,09,43,306,22*7B

$GPGSV,3,2,12,48,34,194,38,15,25,255,40,04,21,160,34,01,18,042,*7B

$GPGSV,3,3,12,26,14,210,33,12,14,280,35,08,09,142,27,11,01,035,*76

$GPRMC,035122.400,A,4735.7144,N,12219.6435,W,0.01,24.94,300412,,,A*4F

$GPVTG,24.94,T,,M,0.01,N,0.02,K,A*05

$GPGGA,035122.600,4735.7144,N,12219.6435,W,1,9,1.35,0.0,M,-17.3,M,,*67

$GPGLL,4735.7144,N,12219.6435,W,035122.600,A,A*44

$GPGSA,A,3,17,27,28,09,15,04,26,12,08,,,,2.35,1.35,1.92*04

$GPGSV,3,1,12,17,72,072,39,27,61,290,42,28,45,083,38,09,43,306,22*7B

$GPGSV,3,2,12,48,34,194,38,15,25,255,40,04,21,160,34,01,18,042,*7B

$GPGSV,3,3,12,26,14,210,33,12,14,280,35,08,09,142,27,11,01,035,*76

$GPRMC,035122.600,A,4735.7144,N,12219.6435,W,0.01,24.94,300412,,,A*4D

$GPVTG,24.94,T,,M,0.01,N,0.01,K,A*06

$GPGGA,035122.800,4735.7144,N,12219.6435,W,1,9,1.35,0.0,M,-17.3,M,,*69

$GPGLL,4735.7144,N,12219.6435,W,035122.800,A,A*4A

$GPGSA,A,3,17,27,28,09,15,04,26,12,08,,,,2.35,1.35,1.92*04

$GPGSV,3,1,12,17,72,072,39,27,61,290,42,28,45,083,38,09,43,306,22*7B

$GPGSV,3,2,12,48,34,194,38,15,25,255,40,04,21,160,34,01,18,042,*7B

$GPGSV,3,3,12,26,14,210,33,12,14,280,35,08,09,142,27,11,01,035,*76

$GPRMC,035122.800,A,4735.7144,N,12219.6435,W,0.01,24.94,300412,,,A*43

$GPVTG,24.94,T,,M,0.01,N,0.01,K,A*06

$GPGGA,035123.000,4735.7144,N,12219.6435,W,1,9,1.35,0.0,M,-17.3,M,,*60

$GPGLL,4735.7144,N,12219.6435,W,035123.000,A,A*43

$GPGSA,A,3,17,27,28,09,15,04,26,12,08,,,,2.35,1.35,1.92*04

$GPGSV,3,1,12,17,72,072,39,27,61,290,42,28,45,083,38,09,43,306,23*7A

$GPGSV,3,2,12,48,34,194,38,15,25,255,40,04,21,160,34,01,18,042,*7B

$GPGSV,3,3,12,26,14,210,32,12,14,280,35,08,09,142,28,11,01,035,*78

$GPRMC,035123.000,A,4735.7144,N,12219.6435,W,0.00,24.94,300412,,,A*4B

$GPVTG,24.94,T,,M,0.00,N,0.00,K,A*06

$GPGGA,035123.200,4735.7144,N,12219.6435,W,1,9,1.35,0.0,M,-17.3,M,,*62

$GPGLL,4735.7144,N,12219.6435,W,035123.200,A,A*41

$GPGSA,A,3,17,27,28,09,15,04,26,12,08,,,,2.35,1.35,1.92*04

$GPGSV,3,1,12,17,72,072,39,27,61,290,42,28,45,083,38,09,43,306,23*7A

$GPGSV,3,2,12,48,34,194,38,15,25,255,40,04,21,160,34,01,18,042,*7B

$GPGSV,3,3,12,26,14,210,32,12,14,280,35,08,09,142,29,11,01,035,*79

$GPRMC,035123.200,A,4735.7144,N,12219.6435,W,0.00,24.94,300412,,,A*49

$GPVTG,24.94,T,,M,0.00,N,0.00,K,A*06

$GPGGA,035123.400,4735.7144,N,12219.6435,W,1,9,1.35,0.0,M,-17.3,M,,*64

$GPGLL,4735.7144,N,12219.6435,W,035123.400,A,A*47

$GPGSA,A,3,17,27,28,09,15,04,26,12,08,,,,2.35,1.35,1.92*04

$GPGSV,3,1,12,17,72,072,39,27,61,290,42,28,45,083,39,09,43,306,23*7B

$GPGSV,3,2,12,48,34,194,38,15,25,255,40,04,21,160,34,01,18,042,*7B

$GPGSV,3,3,12,26,14,210,32,12,14,280,35,08,09,142,29,11,01,035,*79

$GPRMC,035123.400,A,4735.7144,N,12219.6435,W,0.01,24.94,300412,,,A*4E

$GPVTG,24.94,T,,M,0.01,N,0.01,K,A*06

$GPGGA,035123.600,4735.7144,N,12219.6435,W,1,9,1.35,0.0,M,-17.3,M,,*66

$GPGLL,4735.7144,N,12219.6435,W,035123.600,A,A*45

$GPGSA,A,3,17,27,28,09,15,04,26,12,08,,,,2.35,1.35,1.92*04

$GPGSV,3,1,12,17,72,072,39,27,61,290,42,28,45,083,39,09,43,306,23*7B

$GPGSV,3,2,12,48,34,194,38,15,25,255,40,04,21,160,34,01,18,042,*7B

$GPGSV,3,3,12,26,14,210,31,12,14,280,35,08,09,142,29,11,01,035,*7A

$GPRMC,035123.600,A,4735.7144,N,12219.6435,W,0.01,24.94,300412,,,A*4C

$GPVTG,24.94,T,,M,0.01,N,0.02,K,A*05

$GPGGA,035123.800,4735.7144,N,12219.6435,W,1,9,1.35,0.0,M,-17.3,M,,*68

$GPGLL,4735.7144,N,12219.6435,W,035123.800,A,A*4B

$GPGSA,A,3,17,27,28,09,15,04,26,12,08,,,,2.35,1.35,1.92*04

$GPGSV,3,1,12,17,72,072,39,27,61,290,42,28,45,083,39,09,43,306,23*7B

$GPGSV,3,2,12,48,34,194,38,15,25,255,40,04,21,160,35,01,18,041,*79

$GPGSV,3,3,12,26,14,210,31,12,14,280,35,08,09,142,29,11,01,035,*7A

$GPRMC,035123.800,A,4735.7144,N,12219.6435,W,0.00,24.94,300412,,,A*43

$GPVTG,24.94,T,,M,0.00,N,0.00,K,A*06

$GPGGA,035124.000,4735.7144,N,12219.6435,W,1,9,1.35,0.0,M,-17.3,M,,*67

$GPGLL,4735.7144,N,12219.6435,W,035124.000,A,A*44

$GPGSA,A,3,17,27,28,09,15,04,26,12,08,,,,2.35,1.35,1.92*04

$GPGSV,3,1,12,17,72,072,39,27,61,290,42,28,45,083,39,09,43,306,23*7B

$GPGSV,3,2,12,48,34,194,38,15,25,255,40,04,21,160,35,01,18,041,*79

$GPGSV,3,3,12,26,14,210,31,12,14,280,35,08,09,142,30,11,01,035,*72

$GPRMC,035124.000,A,4735.7144,N,12219.6435,W,0.01,24.94,300412,,,A*4D

$GPVTG,24.94,T,,M,0.01,N,0.01,K,A*06

$GPGGA,035124.200,4735.7144,N,12219.6435,W,1,9,1.35,0.0,M,-17.3,M,,*65

$GPGLL,4735.7144,N,12219.6435,W,035124.200,A,A*46

$GPGSA,A,3,17,27,28,09,15,04,26,12,08,,,,2.35,1.35,1.92*04

$GPGSV,3,1,12,17,72,072,39,27,61,290,42,28,45,083,39,09,43,306,23*7B

$GPGSV,3,2,12,48,34,194,38,15,25,255,40,04,21,160,35,01,18,041,*79

$GPGSV,3,3,12,26,14,210,31,12,14,280,35,08,09,142,30,11,01,035,*72

$GPRMC,035124.200,A,4735.7144,N,12219.6435,W,0.00,24.94,300412,,,A*4E

$GPVTG,24.94,T,,M,0.00,N,0.01,K,A*07

$GPGGA,035124.400,4735.7144,N,12219.6435,W,1,9,1.35,0.0,M,-17.3,M,,*63

$GPGLL,4735.7144,N,12219.6435,W,035124.400,A,A*40

$GPGSA,A,3,17,27,28,09,15,04,26,12,08,,,,2.35,1.35,1.92*04

$GPGSV,3,1,12,17,72,072,39,27,61,290,42,28,45,083,39,09,43,306,24*7C

$GPGSV,3,2,12,48,34,194,38,15,25,255,40,04,21,160,35,01,18,041,*79

$GPGSV,3,3,12,26,14,210,31,12,14,280,35,08,09,142,30,11,01,035,*72

$GPRMC,035124.400,A,4735.7144,N,12219.6435,W,0.00,24.94,300412,,,A*48

$GPVTG,24.94,T,,M,0.00,N,0.01,K,A*07

$GPGGA,035124.600,4735.7144,N,12219.6435,W,1,9,1.35,0.0,M,-17.3,M,,*61

$GPGLL,4735.7144,N,12219.6435,W,035124.600,A,A*42

$GPGSA,A,3,17,27,28,09,15,04,26,12,08,,,,2.35,1.35,1.92*04

$GPGSV,3,1,12,17,72,072,39,27,61,290,42,28,45,083,39,09,43,306,24*7C

$GPGSV,3,2,12,48,34,194,38,15,25,255,40,04,21,160,35,01,18,041,*79

$GPGSV,3,3,12,26,14,210,31,12,14,280,36,08,09,142,30,11,01,035,*71

$GPRMC,035124.600,A,4735.7144,N,12219.6435,W,0.01,24.94,300412,,,A*4B

$GPVTG,24.94,T,,M,0.01,N,0.02,K,A*05

$GPGGA,035124.800,4735.7144,N,12219.6435,W,1,9,1.35,0.0,M,-17.3,M,,*6F

$GPGLL,4735.7144,N,12219.6435,W,035124.800,A,A*4C

$GPGSA,A,3,17,27,28,09,15,04,26,12,08,,,,2.35,1.35,1.92*04

$GPGSV,3,1,12,17,72,072,39,27,61,290,42,28,45,083,39,09,43,306,24*7C

$GPGSV,3,2,12,48,34,194,38,15,25,255,40,04,21,160,35,01,18,041,*79

$GPGSV,3,3,12,26,14,210,31,12,14,280,36,08,09,142,30,11,01,035,*71

$GPRMC,035124.800,A,4735.7144,N,12219.6435,W,0.01,24.94,300412,,,A*45

$GPVTG,24.94,T,,M,0.01,N,0.02,K,A*05

$GPGGA,035125.000,4735.7144,N,12219.6435,W,1,9,1.35,0.0,M,-17.3,M,,*66

$GPGLL,4735.7144,N,12219.6435,W,035125.000,A,A*45

$GPGSA,A,3,17,27,28,09,15,04,26,12,08,,,,2.35,1.35,1.92*04

$GPGSV,3,1,12,17,72,072,39,27,61,290,42,28,45,083,39,09,43,306,24*7C

$GPGSV,3,2,12,48,34,194,38,15,25,255,40,04,21,160,35,01,18,041,*79

$GPGSV,3,3,12,26,14,210,31,12,14,280,36,08,09,142,30,11,01,035,*71

$GPRMC,035125.000,A,4735.7144,N,12219.6435,W,0.01,24.94,300412,,,A*4C

$GPVTG,24.94,T,,M,0.01,N,0.01,K,A*06

$GPGGA,035125.200,4735.7144,N,12219.6435,W,1,9,1.35,0.0,M,-17.3,M,,*64

$GPGLL,4735.7144,N,12219.6435,W,035125.200,A,A*47

$GPGSA,A,3,17,27,28,09,15,04,26,12,08,,,,2.35,1.35,1.92*04

$GPGSV,3,1,12,17,72,072,39,27,61,290,42,28,45,083,39,09,43,306,24*7C

$GPGSV,3,2,12,48,34,194,38,15,25,255,40,04,21,160,35,01,18,041,*79

$GPGSV,3,3,12,26,14,210,31,12,14,280,36,08,09,142,30,11,01,035,*71

$GPRMC,035125.200,A,4735.7144,N,12219.6435,W,0.01,24.94,300412,,,A*4E

$GPVTG,24.94,T,,M,0.01,N,0.02,K,A*05

$GPGGA,035125.400,4735.7144,N,12219.6435,W,1,9,1.35,0.0,M,-17.3,M,,*62

$GPGLL,4735.7144,N,12219.6435,W,035125.400,A,A*41

$GPGSA,A,3,17,27,28,09,15,04,26,12,08,,,,2.35,1.35,1.92*04

$GPGSV,3,1,12,17,72,072,39,27,61,290,42,28,45,083,39,09,43,306,24*7C

$GPGSV,3,2,12,48,34,194,38,15,25,255,40,04,21,160,35,01,18,041,*79

$GPGSV,3,3,12,26,14,210,31,12,14,280,36,08,09,142,30,11,01,035,*71

$GPRMC,035125.400,A,4735.7144,N,12219.6435,W,0.01,24.94,300412,,,A*48

$GPVTG,24.94,T,,M,0.01,N,0.02,K,A*05

$GPGGA,035125.600,4735.7144,N,12219.6435,W,1,9,1.35,0.0,M,-17.3,M,,*60

$GPGLL,4735.7144,N,12219.6435,W,035125.600,A,A*43

$GPGSA,A,3,17,27,28,09,15,04,26,12,08,,,,2.35,1.35,1.92*04

$GPGSV,3,1,12,17,72,072,39,27,61,290,42,28,45,083,39,09,43,306,24*7C

$GPGSV,3,2,12,48,34,194,38,15,25,255,40,04,21,160,35,01,18,041,*79

$GPGSV,3,3,12,26,14,210,31,12,14,280,36,08,09,142,30,11,01,035,*71

$GPRMC,035125.600,A,4735.7144,N,12219.6435,W,0.00,24.94,300412,,,A*4B

$GPVTG,24.94,T,,M,0.00,N,0.00,K,A*06

$GPGGA,035125.800,4735.7144,N,12219.6435,W,1,9,1.35,0.0,M,-17.3,M,,*6E

$GPGLL,4735.7144,N,12219.6435,W,035125.800,A,A*4D

$GPGSA,A,3,17,27,28,09,15,04,26,12,08,,,,2.35,1.35,1.92*04

$GPGSV,3,1,12,17,72,072,39,27,61,290,42,28,45,083,39,09,43,306,24*7C

$GPGSV,3,2,12,48,34,194,38,15,25,255,40,04,21,160,35,01,18,041,*79

$GPGSV,3,3,12,26,14,210,31,12,14,280,36,08,09,142,30,11,01,035,*71

$GPRMC,035125.800,A,4735.7144,N,12219.6435,W,0.00,24.94,300412,,,A*45

$GPVTG,24.94,T,,M,0.00,N,0.01,K,A*07

$GPGGA,035126.000,4735.7144,N,12219.6435,W,1,9,1.35,0.0,M,-17.3,M,,*65

$GPGLL,4735.7144,N,12219.6435,W,035126.000,A,A*46

$GPGSA,A,3,17,27,28,09,15,04,26,12,08,,,,2.35,1.35,1.92*04

$GPGSV,3,1,12,17,72,072,39,27,61,290,42,28,45,083,39,09,43,306,24*7C

$GPGSV,3,2,12,48,34,194,38,15,25,255,40,04,21,160,35,01,18,041,*79

$GPGSV,3,3,12,26,14,210,31,12,14,280,36,08,09,142,30,11,01,035,*71

$GPRMC,035126.000,A,4735.7144,N,12219.6435,W,0.01,24.94,300412,,,A*4F

$GPVTG,24.94,T,,M,0.01,N,0.01,K,A*06

$GPGGA,035126.200,4735.7144,N,12219.6435,W,1,9,1.35,0.0,M,-17.3,M,,*67

$GPGLL,4735.7144,N,12219.6435,W,035126.200,A,A*44

$GPGSA,A,3,17,27,28,09,15,04,26,12,08,,,,2.35,1.35,1.92*04

$GPGSV,3,1,12,17,72,072,39,27,61,290,42,28,45,083,39,09,43,306,24*7C

$GPGSV,3,2,12,48,34,194,38,15,25,255,40,04,21,160,35,01,18,041,*79

$GPGSV,3,3,12,26,14,210,31,12,14,280,36,08,09,142,30,11,01,035,*71

$GPRMC,035126.200,A,4735.7144,N,12219.6435,W,0.01,24.94,300412,,,A*4D

$GPVTG,24.94,T,,M,0.01,N,0.01,K,A*06

$GPGGA,035126.400,4735.7144,N,12219.6435,W,1,9,1.35,0.0,M,-17.3,M,,*61

$GPGLL,4735.7144,N,12219.6435,W,035126.400,A,A*42

$GPGSA,A,3,17,27,28,09,15,04,26,12,08,,,,2.35,1.35,1.92*04

$GPGSV,3,1,12,17,72,072,39,27,61,290,42,28,45,083,39,09,43,306,24*7C

